     2              OBSERVATION DATA    G                   RINEX VERSION / TYPE
RINEX MATLAB Toolbox by Constell, Inc.  15-Feb-2000 09:34:23PGM / RUN BY / DATE 
Unknown                                                     MARKER NAME         
Unknown                                                     MARKER NUMBER       
Simulated Data                                              OBSERVER / AGENCY   
Simulated GPS Receiver                                      REC # / TYPE / VERS 
Simulated Antenna                                           ANT # / TYPE        
                                                            APPROX POSITION XYZ 
                                                            ANTENNA: DELTA H/E/N
     1     1     7   G 3   G 6   G10   G17   G21   G22   G23WAVELENGTH FACT L1/2
     1     1     1   G26                                    WAVELENGTH FACT L1/2
     1     1                                                WAVELENGTH FACT L1/2
     3    C1    L1    D1                                    # / TYPES OF OBSERV 
    20                                                      INTERVAL            
  2000     4    15     0     0    0.000000      GPS         TIME OF FIRST OBS   
  2000     4    15     1     0    0.000000      GPS         TIME OF LAST OBS    
    13                                                      LEAP SECONDS        
     8                                                      # OF SATELLITES     
   G 3    83    83    83                                    PRN / # OF OBS      
   G 6   181   181   181                                    PRN / # OF OBS      
   G10    61    61    61                                    PRN / # OF OBS      
   G17   181   181   181                                    PRN / # OF OBS      
   G21   133   133   133                                    PRN / # OF OBS      
   G22   125   125   125                                    PRN / # OF OBS      
   G23   181   181   181                                    PRN / # OF OBS      
   G26   181   181   181                                    PRN / # OF OBS      
                                                            END OF HEADER       
 00 04 15 00 00  0.0000000  0  6G 6G10G17G22G23G26                              
  20647816.926   999833699.386         302.353                                  
  24003180.113   584204568.589         607.992                                  
  20669175.392   -80579791.088        -240.991                                  
  24365244.406   645434941.494          57.948                                  
  22142921.617   139946497.709        -425.244                                  
  21116475.612  -341877145.033        -134.731                                  
 00 04 15 00 00 20.0000000  0  6G 6G10G17G22G23G26                              
  20653891.090   999865623.308         314.358                                  
  24015332.591   584268430.871         616.858                                  
  20664360.927   -80605091.409        -230.560                                  
  24366418.133   645441109.979          68.887                                  
  22134437.077   139901910.122        -414.103                                  
  21113804.278  -341891183.062        -122.829                                  
 00 04 15 00 00 40.0000000  0  6G 6G10G17G22G23G26                              
  20660205.547   999898802.367         323.309                                  
  24027670.055   584333263.808         622.912                                  
  20659750.444   -80629319.867        -224.418                                  
  24367823.033   645448492.096          77.536                                  
  22126163.179   139858434.552        -406.866                                  
  21111374.290  -341903952.578        -113.868                                  
 00 04 15 00 01  0.0000000  0  6G 6G10G17G22G23G26                              
  20666687.095   999932864.448         327.384                                  
  24040131.436   584398748.273         625.235                                  
  20655274.907   -80652839.155        -220.577                                  
  24369392.840   645456743.139          82.105                                  
  22118040.372   139815746.217        -402.815                                  
  21109125.478  -341915767.175        -108.840                                  
 00 04 15 00 01 20.0000000  0  6G 6G10G17G22G23G26                              
  20673253.210   999967369.193         331.192                                  
  24052636.114   584464460.121         627.352                                  
  20650869.014   -80675991.120        -217.008                                  
  24371057.997   645465493.624          86.448                                  
  22109991.282   139773451.209        -399.874                                  
  21106977.522  -341927056.925        -103.767                                  
 00 04 15 00 01 40.0000000  0  6G 6G10G17G22G23G26                              
  20679907.540  1000002336.342         328.310                                  
  24065193.739   584530447.607         623.233                                  
  20646532.560   -80698780.422        -221.727                                  
  24372813.746   645474719.890          83.036                                  
  22102017.514   139731549.253        -403.406                                  
  21104936.302  -341937781.942        -105.289                                  
 00 04 15 00 02  0.0000000  0  6G 6G10G17G22G23G26                              
  20686497.704  1000036968.847         344.431                                  
  24077652.444   584595917.057         636.437                                  
  20642113.131   -80722004.745        -206.926                                  
  24374506.735   645483615.824          99.797                                  
  22093963.310   139689224.925        -388.131                                  
  21102845.981  -341948766.307         -89.206                                  
 00 04 15 00 02 20.0000000  0  6G 6G10G17G22G23G26                              
  20693415.095  1000073318.961         347.314                                  
  24090392.672   584662866.104         637.636                                  
  20637992.067   -80743660.625        -204.924                                  
  24376520.972   645494201.984         103.033                                  
  22086215.749   139648512.577        -385.773                                  
  21101087.321  -341958009.370         -86.392                                  
 00 04 15 00 02 40.0000000  0  6G 6G10G17G22G23G26                              
  20700390.661  1000109975.267         363.109                                  
  24103145.445   584729881.870         650.518                                  
  20633904.630   -80765140.223        -190.773                                  
  24378585.871   645505052.343         117.418                                  
  22078503.432   139607983.323        -372.270                                  
  21099394.572  -341966903.634         -70.068                                  
 00 04 15 00 03  0.0000000  0  6G 6G10G17G22G23G26                              
  20707678.084  1000148268.925         367.622                                  
  24116166.280   584798307.664         653.142                                  
  20630100.194   -80785131.373        -187.918                                  
  24380954.723   645517500.789         121.430                                  
  22071070.639   139568926.654        -368.854                                  
  21098015.254  -341974152.852         -66.413                                  
 00 04 15 00 03 20.0000000  0  6G 6G10G17G22G23G26                              
  20715051.255  1000187016.098         379.188                                  
  24129232.286   584866967.017         663.069                                  
  20626354.397   -80804814.134        -176.385                                  
  24383405.747   645530380.594         133.055                                  
  22063703.493   139530209.253        -357.065                                  
  21096727.066  -341980922.330         -53.211                                  
 00 04 15 00 03 40.0000000  0  6G 6G10G17G22G23G26                              
  20722661.851  1000227011.087         367.883                                  
  24142498.865   584936685.822         649.824                                  
  20622823.182   -80823373.656        -190.037                                  
  24386098.717   645544530.864         122.543                                  
  22056563.896   139492692.285        -370.295                                  
  21095687.489  -341986385.279         -63.878                                  
 00 04 15 00 04  0.0000000  0  6G 6G10G17G22G23G26                              
  20730043.571  1000265801.616         362.038                                  
  24155497.252   585004991.115         641.698                                  
  20619045.534   -80843222.535        -196.491                                  
  24388558.787   645557457.258         116.392                                  
  22049168.128   139453827.992        -377.461                                  
  21094434.970  -341992965.968         -69.264                                  
 00 04 15 00 04 20.0000000  0  6G 6G10G17G22G23G26                              
  20737302.567  1000303948.982         376.926                                  
  24168337.863   585072465.654         655.241                                  
  20615129.302   -80863803.779        -181.836                                  
  24390900.021   645569761.292         130.956                                  
  22041637.128   139414252.662        -362.349                                  
  21093082.880  -342000072.074         -52.967                                  
 00 04 15 00 04 40.0000000  0  6G 6G10G17G22G23G26                              
  20744865.403  1000343690.584         376.342                                  
  24181437.316   585141303.703         650.919                                  
  20611502.324   -80882864.944        -184.112                                  
  24393545.967   645583667.183         130.338                                  
  22034402.399   139376232.678        -364.351                                  
  21092046.463  -342005517.727         -53.816                                  
 00 04 15 00 05  0.0000000  0  6G 6G10G17G22G23G26                              
  20752407.521  1000383323.646         384.829                                  
  24194461.130   585209744.596         657.377                                  
  20607822.356   -80902200.820        -177.161                                  
  24396163.856   645597423.371         137.694                                  
  22027129.466   139338014.440        -356.449                                  
  21091003.639  -342010998.089         -44.834                                  
 00 04 15 00 05 20.0000000  0  6G 6G10G17G22G23G26                              
  20760116.399  1000423834.701         380.769                                  
  24207608.979   585278836.149         652.385                                  
  20604283.400   -80920799.748        -182.067                                  
  24398948.809   645612058.417         134.945                                  
  22020007.345   139300587.569        -360.602                                  
  21090134.284  -342015565.003         -47.857                                  
 00 04 15 00 05 40.0000000  0  6G 6G10G17G22G23G26                              
  20767760.147  1000464003.682         384.854                                  
  24220644.733   585347338.761         653.336                                  
  20600653.492   -80939874.999        -179.761                                  
  24401663.896   645626327.766         137.984                                  
  22012801.999   139262725.785        -358.889                                  
  21089208.641  -342020429.610         -43.248                                  
 00 04 15 00 06  0.0000000  0  6G 6G10G17G22G23G26                              
  20775476.949  1000504554.702         374.254                                  
  24233706.106   585415973.113         640.689                                  
  20597070.995   -80958699.430        -191.127                                  
  24404441.948   645640926.581         127.532                                  
  22005647.367   139225127.061        -369.398                                  
  21088363.512  -342024872.683         -53.808                                  
 00 04 15 00 06 20.0000000  0  6G 6G10G17G22G23G26                              
  20782983.257  1000544000.070         363.228                                  
  24246518.583   585483305.332         627.661                                  
  20593261.187   -80978719.532        -203.066                                  
  24407009.935   645654419.104         116.591                                  
  21998271.277   139186366.131        -380.543                                  
  21087320.943  -342030350.222         -63.648                                  
 00 04 15 00 06 40.0000000  0  6G 6G10G17G22G23G26                              
  20790281.994  1000582355.375         372.971                                  
  24259079.221   585549309.977         635.016                                  
  20589218.513   -80999964.660        -194.440                                  
  24409362.878   645666781.911         126.315                                  
  21990665.166   139146395.274        -372.713                                  
  21086075.036  -342036895.014         -53.343                                  
 00 04 15 00 07  0.0000000  0  6G 6G10G17G22G23G26                              
  20797765.804  1000621682.253         375.035                                  
  24271785.153   585616079.833         635.433                                  
  20585336.041   -81020366.777        -193.756                                  
  24411904.156   645680138.665         127.949                                  
  21983227.553   139107312.314        -371.160                                  
  21085024.446  -342042417.831         -51.753                                  
 00 04 15 00 07 20.0000000  0  6G 6G10G17G22G23G26                              
  20805293.778  1000661240.952         371.963                                  
  24284489.666   585682840.165         629.512                                  
  20581477.530   -81040642.883        -198.056                                  
  24414496.964   645693763.995         124.660                                  
  21975821.128   139068390.773        -375.557                                  
  21084028.405  -342047649.615         -53.851                                  
 00 04 15 00 07 40.0000000  0  6G 6G10G17G22G23G26                              
  20812751.527  1000700432.904         368.030                                  
  24297083.840   585749023.179         623.924                                  
  20577527.686   -81061401.923        -202.720                                  
  24417021.151   645707030.076         121.237                                  
  21968325.396   139028999.686        -380.316                                  
  21082975.310  -342053185.581         -56.900                                  
 00 04 15 00 08  0.0000000  0  6G 6G10G17G22G23G26                              
  20820131.351  1000739213.039         376.471                                  
  24309559.095   585814579.576         630.291                                  
  20573472.723   -81082707.091        -195.429                                  
  24419472.546   645719908.972         130.318                                  
  21960731.142   138989094.902        -372.026                                  
  21081860.598  -342059043.944         -47.207                                  
 00 04 15 00 08 20.0000000  0  6G 6G10G17G22G23G26                              
  20827682.352  1000778893.300         381.004                                  
  24322171.376   585880856.752         633.109                                  
  20569581.154   -81103157.734        -191.316                                  
  24422104.764   645733741.100         135.508                                  
  21953299.819   138950043.283        -368.857                                  
  21080944.007  -342063859.430         -41.984                                  
 00 04 15 00 08 40.0000000  0  6G 6G10G17G22G23G26                              
  20835320.105  1000819030.060         386.096                                  
  24334840.785   585947433.715         636.649                                  
  20565764.609   -81123215.789        -187.729                                  
  24424825.022   645748038.776         140.172                                  
  21945951.812   138911428.657        -363.846                                  
  21080138.989  -342068090.972         -35.852                                  
 00 04 15 00 09  0.0000000  0  6G 6G10G17G22G23G26                              
  20843064.641  1000859725.315         391.494                                  
  24347578.300   586014370.129         639.844                                  
  20562031.870   -81142830.655        -182.649                                  
  24427641.004   645762834.838         145.231                                  
  21938699.120   138873316.977        -358.188                                  
  21079453.237  -342071693.003         -29.430                                  
 00 04 15 00 09 20.0000000  0  6G 6G10G17G22G23G26                              
  20850929.205  1000901053.726         398.978                                  
  24360386.693   586081676.556         645.673                                  
  20558391.118   -81161963.023        -176.259                                  
  24430566.155   645778209.266         152.234                                  
  21931548.815   138835740.739        -351.288                                  
  21078898.715  -342074607.002         -20.949                                  
 00 04 15 00 09 40.0000000  0  6G 6G10G17G22G23G26                              
  20858941.728  1000943161.850         405.702                                  
  24373295.066   586149507.121         648.983                                  
  20554877.905   -81180424.185        -171.023                                  
  24433637.319   645794345.740         159.006                                  
  21924531.728   138798866.680        -346.194                                  
  21078503.444  -342076683.780         -14.059                                  
 00 04 15 00 10  0.0000000  0  6G 6G10G17G22G23G26                              
  20867072.348  1000985886.789         392.835                                  
  24386285.792   586217774.300         634.984                                  
  20551465.074   -81198357.916        -184.936                                  
  24436828.974   645811119.236         145.578                                  
  21917617.247   138762534.328        -359.818                                  
  21078243.034  -342078053.869         -26.369                                  
 00 04 15 00 10 20.0000000  0  6G 6G10G17G22G23G26                              
  20874954.447  1001027307.947         399.773                                  
  24398988.912   586284529.543         639.385                                  
  20547782.961   -81217707.947        -179.493                                  
  24439767.305   645826559.211         151.789                                  
  21910431.368   138724770.584        -354.348                                  
  21077743.375  -342080677.416         -19.212                                  
 00 04 15 00 10 40.0000000  0  6G 6G10G17G22G23G26                              
  20882963.969  1001069398.845         409.140                                  
  24411773.250   586351711.498         646.878                                  
  20544216.447   -81236448.978        -169.874                                  
  24442833.204   645842670.380         161.399                                  
  21903354.400   138687580.075        -345.060                                  
  21077389.121  -342082539.514          -8.122                                  
 00 04 15 00 11  0.0000000  0  6G 6G10G17G22G23G26                              
  20891169.391  1001112517.840         417.002                                  
  24424713.008   586419709.493         652.939                                  
  20540824.223   -81254276.690        -163.021                                  
  24446087.345   645859768.854         169.655                                  
  21896458.431   138651344.506        -337.861                                  
  21077243.492  -342083307.121          -0.805                                  
 00 04 15 00 11 20.0000000  0  6G 6G10G17G22G23G26                              
  20899530.168  1001156454.035         397.543                                  
  24437772.116   586488333.895         631.319                                  
  20537568.477   -81271384.263        -183.943                                  
  24449492.528   645877667.090         149.528                                  
  21889704.122   138615850.958        -359.298                                  
  21077267.024  -342083178.541         -19.672                                  
 00 04 15 00 11 40.0000000  0  6G 6G10G17G22G23G26                              
  20907506.589  1001198368.047         395.862                                  
  24450396.653   586554675.151         626.967                                  
  20533888.436   -81290723.936        -187.996                                  
  24452503.811   645893490.584         147.052                                  
  21882534.009   138578171.715        -362.360                                  
  21076903.411  -342085093.020         -21.673                                  
 00 04 15 00 12  0.0000000  0  6G 6G10G17G22G23G26                              
  20915437.445  1001240045.223         391.427                                  
  24462933.193   586620553.032         620.748                                  
  20530141.843   -81310413.922        -192.566                                  
  24455469.437   645909073.815         143.959                                  
  21875300.244   138540158.232        -366.963                                  
  21076505.446  -342087184.982         -24.617                                  
 00 04 15 00 12 20.0000000  0  6G 6G10G17G22G23G26                              
  20923289.632  1001281309.420         394.777                                  
  24475346.931   586685788.802         621.291                                  
  20526297.557   -81330613.618        -190.531                                  
  24458358.587   645924256.773         146.843                                  
  21867969.774   138501636.205        -364.849                                  
  21076042.214  -342089618.315         -20.993                                  
 00 04 15 00 12 40.0000000  0  6G 6G10G17G22G23G26                              
  20931201.660  1001322886.050         392.238                                  
  24487772.917   586751086.690         616.842                                  
  20522494.844   -81350597.125        -193.300                                  
  24461308.433   645939756.032         144.949                                  
  21860689.885   138463382.824        -367.130                                  
  21075650.482  -342091674.804         -21.880                                  
 00 04 15 00 13  0.0000000  0  6G 6G10G17G22G23G26                              
  20939075.562  1001364263.480         396.141                                  
  24500120.048   586815970.197         617.710                                  
  20518638.337   -81370861.408        -190.939                                  
  24464216.879   645955040.708         147.608                                  
  21853361.318   138424871.083        -364.796                                  
  21075235.510  -342093856.264         -18.484                                  
 00 04 15 00 13 20.0000000  0  6G 6G10G17G22G23G26                              
  20947010.600  1001405963.055         413.803                                  
  24512482.439   586880934.843         634.630                                  
  20514819.863   -81390928.997        -174.385                                  
  24467179.195   645970608.153         165.651                                  
  21846073.070   138386570.376        -347.149                                  
  21074893.968  -342095650.969           0.671                                  
 00 04 15 00 13 40.0000000  0  6G 6G10G17G22G23G26                              
  20955305.905  1001449556.262         424.694                                  
  24525168.215   586947595.772         642.082                                  
  20511348.899   -81409169.118        -165.071                                  
  24470515.089   645988138.454         176.635                                  
  21839136.212   138350115.917        -337.503                                  
  21074936.161  -342095430.075          11.871                                  
 00 04 15 00 14  0.0000000  0  6G 6G10G17G22G23G26                              
  20963803.896  1001494210.430         423.982                                  
  24538015.078   587015108.065         641.480                                  
  20508062.342   -81426440.256        -164.730                                  
  24474060.289   646006766.569         176.635                                  
  21832392.665   138314680.489        -337.274                                  
  21075200.956  -342094039.391          13.185                                  
 00 04 15 00 14 20.0000000  0  6G 6G10G17G22G23G26                              
  20972312.766  1001538925.033         416.799                                  
  24550834.166   587082470.374         631.277                                  
  20504765.955   -81443761.722        -173.642                                  
  24477611.631   646025431.477         168.351                                  
  21825648.062   138279237.912        -346.728                                  
  21075494.653  -342092495.149           6.444                                  
 00 04 15 00 14 40.0000000  0  6G 6G10G17G22G23G26                              
  20980669.465  1001582837.368         418.191                                  
  24563463.763   587148837.692         631.191                                  
  20501298.193   -81461984.244        -174.177                                  
  24481007.561   646043276.776         169.718                                  
  21818736.115   138242915.461        -346.116                                  
  21075652.770  -342091663.619           8.521                                  
 00 04 15 00 15  0.0000000  0  6G 6G10G17G22G23G26                              
  20989047.038  1001626862.933         416.904                                  
  24576076.744   587215118.400         627.869                                  
  20497834.520   -81480187.771        -176.162                                  
  24484428.259   646061252.973         169.024                                  
  21811835.197   138206650.104        -347.357                                  
  21075850.919  -342090624.314           8.094                                  
 00 04 15 00 15 20.0000000  0  6G 6G10G17G22G23G26                              
  20997404.958  1001670784.216         413.820                                  
  24588625.060   587281059.988         622.396                                  
  20494331.336   -81498596.685        -179.940                                  
  24487823.463   646079092.426         165.132                                  
  21804900.723   138170210.282        -351.752                                  
  21076036.308  -342089645.362           5.401                                  
 00 04 15 00 15 40.0000000  0  6G 6G10G17G22G23G26                              
  21005697.148  1001714358.794         412.145                                  
  24601068.388   587346448.290         617.985                                  
  20490747.660   -81517429.552        -182.908                                  
  24491149.209   646096569.180         163.570                                  
  21797891.603   138133379.918        -353.604                                  
  21076169.662  -342088946.503           3.591                                  
 00 04 15 00 16  0.0000000  0  7G 6G10G17G21G22G23G26                           
  21013956.802  1001757762.385         417.627                                  
  24613429.299   587411404.463         621.793                                  
  20487103.141   -81536580.865        -178.077                                  
  25007838.242  -536209353.822        -541.854                                  
  24494436.837   646113846.569         169.511                                  
  21790830.161   138096270.628        -348.577                                  
  21076280.517  -342088363.142          10.948                                  
 00 04 15 00 16 20.0000000  0  7G 6G10G17G21G22G23G26                           
  21022337.867  1001801806.639         434.478                                  
  24625869.156   587476776.004         635.725                                  
  20483562.437   -81555187.773        -162.635                                  
  24997005.156  -536266279.946        -527.514                                  
  24497849.774   646131778.995         185.617                                  
  21783872.077   138059706.604        -333.459                                  
  21076535.748  -342087022.856          28.569                                  
 00 04 15 00 16 40.0000000  0  7G 6G10G17G21G22G23G26                           
  21031040.808  1001847539.114         416.774                                  
  24638588.287   587543614.651         616.401                                  
  20480325.500   -81572197.543        -179.988                                  
  24986458.126  -536321703.533        -546.746                                  
  24501580.927   646151386.406         168.657                                  
  21777218.856   138024744.248        -351.534                                  
  21077128.075  -342083910.710          11.762                                  
 00 04 15 00 17  0.0000000  0  7G 6G10G17G21G22G23G26                           
  21039403.022  1001891483.861         409.511                                  
  24650925.911   587608449.514         606.926                                  
  20476737.900   -81591050.096        -187.716                                  
  24975533.805  -536379109.591        -555.371                                  
  24504968.639   646169189.219         160.767                                  
  21770211.963   137987923.465        -359.680                                  
  21077388.195  -342082544.231           4.887                                  
 00 04 15 00 17 20.0000000  0  7G 6G10G17G21G22G23G26                           
  21047611.259  1001934615.178         420.201                                  
  24663069.606   587672264.075         616.048                                  
  20472988.749   -81610753.560        -177.406                                  
  24964424.960  -536437486.229        -546.151                                  
  24508208.377   646186212.377         171.952                                  
  21763046.013   137950265.315        -348.518                                  
  21077511.286  -342081897.806          16.919                                  
 00 04 15 00 17 40.0000000  0  7G 6G10G17G21G22G23G26                           
  21056040.638  1001978913.996         430.089                                  
  24675397.992   587737046.203         623.758                                  
  20469444.688   -81629374.819        -169.413                                  
  24953502.839  -536494879.495        -538.386                                  
  24511663.058   646204368.567         180.993                                  
  21756089.559   137913708.429        -339.899                                  
  21077870.064  -342080010.911          26.338                                  
 00 04 15 00 18  0.0000000  0  7G 6G10G17G21G22G23G26                           
  21064661.776  1002024214.876         432.637                                  
  24687873.459   587802606.503         624.467                                  
  20466065.575   -81647132.186        -167.224                                  
  24942736.773  -536551454.488        -537.107                                  
  24515301.458   646223487.465         183.490                                  
  21749310.646   137878086.133        -337.012                                  
  21078429.143  -342077073.422          30.646                                  
 00 04 15 00 18 20.0000000  0  7G 6G10G17G21G22G23G26                           
  21073331.966  1002069780.512         437.615                                  
  24700365.581   587868249.363         627.434                                  
  20462725.244   -81664688.139        -163.341                                  
  24931995.233  -536607899.128        -534.284                                  
  24518996.883   646242908.368         188.477                                  
  21742577.715   137842704.210        -333.230                                  
  21079059.731  -342073759.155          35.970                                  
 00 04 15 00 18 40.0000000  0  7G 6G10G17G21G22G23G26                           
  21082095.756  1002115833.183         431.129                                  
  24712906.754   587934155.231         619.134                                  
  20459466.679   -81681810.942        -170.247                                  
  24921319.272  -536664000.945        -541.425                                  
  24522783.301   646262806.960         182.277                                  
  21735925.548   137807750.912        -340.205                                  
  21079810.268  -342069814.633          30.325                                  
 00 04 15 00 19  0.0000000  0  7G 6G10G17G21G22G23G26                           
  21090738.370  1002161248.320         422.545                                  
  24725286.195   587999205.714         608.954                                  
  20456072.251   -81699646.055        -179.559                                  
  24910494.602  -536720885.842        -551.416                                  
  24526443.977   646282043.324         174.042                                  
  21729139.590   137772090.474        -349.397                                  
  21080456.302  -342066420.594          23.513                                  
 00 04 15 00 19 20.0000000  0  7G 6G10G17G21G22G23G26                           
  21099216.974  1002205804.697         428.154                                  
  24737462.296   588063191.969         611.193                                  
  20452502.214   -81718407.100        -175.729                                  
  24899474.307  -536778795.471        -548.299                                  
  24529940.968   646300418.326         178.977                                  
  21722172.467   137735476.793        -344.941                                  
  21080948.280  -342063834.414          28.834                                  
 00 04 15 00 19 40.0000000  0  7G 6G10G17G21G22G23G26                           
  21107796.610  1002250889.786         444.209                                  
  24749689.081   588127443.422         625.201                                  
  20449010.678   -81736756.044        -160.165                                  
  24888527.139  -536836320.429        -533.323                                  
  24533531.682   646319287.808         194.020                                  
  21715279.950   137699258.887        -329.715                                  
  21081547.967  -342060683.397          45.108                                  
 00 04 15 00 20  0.0000000  0  7G 6G10G17G21G22G23G26                           
  21116701.021  1002297682.112         451.847                                  
  24762195.491   588193165.311         630.389                                  
  20445819.951   -81753522.555        -153.879                                  
  24877873.087  -536892308.883        -526.961                                  
  24537440.253   646339826.717         201.925                                  
  21708699.091   137664675.067        -322.515                                  
  21082487.316  -342055745.165          54.079                                  
 00 04 15 00 20 20.0000000  0  6G 6G17G21G22G23G26                              
  21125754.340  1002345259.144         449.616                                  
  20442752.285   -81769642.544        -156.847                                  
  24867338.450  -536947665.913        -530.796                                  
  24541492.087   646361119.236         199.891                                  
  21702252.198   137630796.088        -326.377                                  
  21083590.900  -342049946.630          53.104                                  
 00 04 15 00 20 40.0000000  0  6G 6G17G21G22G23G26                              
  21134763.733  1002392601.122         458.272                                  
  20439629.925   -81786051.688        -147.898                                  
  24856732.164  -537003401.332        -522.737                                  
  24545503.267   646382198.563         209.316                                  
  21695747.205   137596614.457        -317.239                                  
  21084673.163  -342044261.210          62.897                                  
 00 04 15 00 21  0.0000000  0  6G 6G17G21G22G23G26                              
  21143956.041  1002440908.938         457.346                                  
  20436684.249   -81801532.188        -149.256                                  
  24846284.659  -537058300.994        -525.230                                  
  24549702.696   646404264.749         207.931                                  
  21689420.881   137563369.400        -318.987                                  
  21085958.307  -342037506.722          62.059                                  
 00 04 15 00 21 20.0000000  0  6G 6G17G21G22G23G26                              
  21153122.437  1002489076.806         452.186                                  
  20433694.592   -81817244.197        -155.303                                  
  24835789.131  -537113455.522        -531.592                                  
  24553874.712   646426190.028         202.324                                  
  21683060.418   137529946.620        -324.291                                  
  21087237.979  -342030782.704          57.989                                  
 00 04 15 00 21 40.0000000  0  6G 6G17G21G22G23G26                              
  21162181.287  1002536681.805         452.862                                  
  20430580.522   -81833607.909        -155.708                                  
  24825164.166  -537169289.276        -531.460                                  
  24557937.726   646447540.628         203.177                                  
  21676585.748   137495920.191        -323.683                                  
  21088432.994  -342024502.989          60.867                                  
 00 04 15 00 22  0.0000000  0  6G 6G17G21G22G23G26                              
  21171264.641  1002584413.270         448.150                                  
  20427469.866   -81849953.821        -161.539                                  
  24814535.068  -537225143.602        -538.069                                  
  24562025.094   646469019.724         198.253                                  
  21670122.801   137461958.250        -329.658                                  
  21089666.263  -342018020.255          55.708                                  
 00 04 15 00 22 20.0000000  0  6G 6G17G21G22G23G26                              
  21180250.900  1002631636.658         448.112                                  
  20424243.524   -81866908.688        -163.458                                  
  24803778.666  -537281668.491        -540.357                                  
  24566013.718   646489980.153         197.746                                  
  21663548.981   137427411.358        -330.659                                  
  21090817.421  -342011973.635          56.064                                  
 00 04 15 00 22 40.0000000  0  6G 6G17G21G22G23G26                              
  21189224.260  1002678790.829         451.460                                  
  20420985.949   -81884027.410        -159.634                                  
  24792979.219  -537338416.786        -537.868                                  
  24569989.211   646510871.298         201.995                                  
  21656943.368   137392700.495        -327.482                                  
  21091970.603  -342005911.941          61.452                                  
 00 04 15 00 23  0.0000000  0  6G 6G17G21G22G23G26                              
  21198276.075  1002726358.695         444.088                                  
  20417793.742   -81900801.514        -168.107                                  
  24782234.991  -537394877.742        -545.973                                  
  24574041.916   646532166.667         194.060                                  
  21650409.996   137358368.244        -336.053                                  
  21093223.998  -341999323.058          54.034                                  
 00 04 15 00 23 20.0000000  0  6G 6G17G21G22G23G26                              
  21207184.678  1002773173.514         450.206                                  
  20414447.122   -81918386.761        -162.814                                  
  24771326.107  -537452202.660        -541.788                                  
  24577947.373   646552689.575         200.309                                  
  21643721.378   137323221.038        -329.766                                  
  21094347.641  -341993421.054          61.244                                  
 00 04 15 00 23 40.0000000  0  6G 6G17G21G22G23G26                              
  21216205.034  1002820574.428         461.114                                  
  20411198.486   -81935458.147        -152.993                                  
  24760498.760  -537509097.732        -532.320                                  
  24581965.859   646573806.147         210.518                                  
  21637139.992   137288632.829        -319.495                                  
  21095601.712  -341986830.999          72.878                                  
 00 04 15 00 24  0.0000000  0  6G 6G17G21G22G23G26                              
  21225440.490  1002869106.413         464.597                                  
  20408145.827   -81951501.170        -150.118                                  
  24749857.412  -537565017.690        -530.497                                  
  24586195.944   646596037.853         214.095                                  
  21630757.479   137255093.579        -316.683                                  
  21097083.599  -341979041.147          77.161                                  
 00 04 15 00 24 20.0000000  0  6G 6G17G21G22G23G26                              
  21234751.123  1002918033.766         471.341                                  
  20405154.585   -81967219.651        -145.071                                  
  24739262.738  -537620693.290        -524.996                                  
  24590504.764   646618677.866         221.030                                  
  21624435.633   137221871.820        -310.353                                  
  21098653.990  -341970791.908          84.514                                  
 00 04 15 00 24 40.0000000  0  6G 6G17G21G22G23G26                              
  21244190.343  1002967636.885         474.162                                  
  20402287.203   -81982287.960        -141.178                                  
  24728767.285  -537675844.894        -522.619                                  
  24594946.562   646642019.275         223.789                                  
  21618233.119   137189280.512        -308.133                                  
  21100373.831  -341961753.948          89.558                                  
 00 04 15 00 25  0.0000000  0  6G 6G17G21G22G23G26                              
  21253702.884  1003017627.359         493.776                                  
  20399478.134   -81997050.840        -123.302                                  
  24718318.555  -537730752.237        -505.637                                  
  24599456.893   646665720.834         242.858                                  
  21612090.005   137156997.598        -289.526                                  
  21102184.488  -341952237.594         108.430                                  
 00 04 15 00 25 20.0000000  0  6G 6G17G21G22G23G26                              
  21263597.242  1003069620.446         504.607                                  
  20397038.531   -82009871.935        -111.794                                  
  24708219.811  -537783820.700        -495.579                                  
  24604340.652   646691385.144         253.707                                  
  21606306.488   137126606.318        -279.222                                  
  21104385.554  -341940669.487         120.628                                  
 00 04 15 00 25 40.0000000  0  6G 6G17G21G22G23G26                              
  21273703.133  1003122726.544         494.824                                  
  20394810.421   -82021581.698        -121.929                                  
  24698312.380  -537835883.015        -506.480                                  
  24609437.446   646718169.780         244.085                                  
  21600730.624   137097303.857        -290.232                                  
  21106826.039  -341927845.256         111.320                                  
 00 04 15 00 26  0.0000000  0  6G 6G17G21G22G23G26                              
  21283607.605  1003174775.220         496.890                                  
  20392375.209   -82034376.830        -119.980                                  
  24688186.567  -537889093.834        -504.685                                  
  24614335.056   646743906.781         246.816                                  
  21594949.397   137066924.423        -287.320                                  
  21109085.153  -341915975.439         115.291                                  
 00 04 15 00 26 20.0000000  0  6G 6G17G21G22G23G26                              
  21293564.419  1003227097.992         485.880                                  
  20389982.263   -82046952.071        -132.239                                  
  24678089.652  -537942152.725        -517.508                                  
  24619289.794   646769943.404         236.044                                  
  21589216.860   137036800.835        -299.490                                  
  21111420.473  -341903701.058         105.374                                  
 00 04 15 00 26 40.0000000  0  6G 6G17G21G22G23G26                              
  21303305.765  1003278286.693         497.567                                  
  20387351.808   -82060773.774        -122.020                                  
  24667739.151  -537996542.370        -507.868                                  
  24624023.390   646794817.976         247.026                                  
  21583261.355   137005502.774        -287.733                                  
  21113549.833  -341892511.899         116.629                                  
 00 04 15 00 27  0.0000000  0  6G 6G17G21G22G23G26                              
  21313266.884  1003330633.468         501.644                                  
  20384919.138   -82073559.067        -118.640                                  
  24657577.526  -538049940.475        -505.078                                  
  24628974.801   646820836.985         250.985                                  
  21577516.780   136975316.406        -284.295                                  
  21115910.540  -341880107.565         122.356                                  
 00 04 15 00 27 20.0000000  0  6G 6G17G21G22G23G26                              
  21323325.444  1003383492.803         507.481                                  
  20382564.128   -82085933.464        -112.807                                  
  24647487.794  -538102961.978        -500.373                                  
  24634010.327   646847299.464         256.494                                  
  21571852.783   136945554.941        -278.462                                  
  21118382.465  -341867113.750         129.103                                  
 00 04 15 00 27 40.0000000  0  6G 6G17G21G22G23G26                              
  21333502.807  1003436971.723         516.010                                  
  20380312.298   -82097767.732        -105.295                                  
  24637490.009  -538155499.314        -492.929                                  
  24639156.320   646874339.504         265.511                                  
  21566290.272   136916320.257        -271.116                                  
  21120989.814  -341853415.335         138.670                                  
 00 04 15 00 28  0.0000000  0  6G 6G17G21G22G23G26                              
  21343853.493  1003491364.071         535.457                                  
  20378216.020   -82108783.547         -86.857                                  
  24627643.133  -538207243.988        -474.967                                  
  24644474.863   646902289.616         283.564                                  
  21560885.214   136887917.173        -252.929                                  
  21123791.281  -341838693.349         157.710                                  
 00 04 15 00 28 20.0000000  0  6G 6G17G21G22G23G26                              
  21354581.871  1003547742.942         536.413                                  
  20376479.939   -82117905.743         -87.579                                  
  24618140.970  -538257175.200        -476.351                                  
  24650162.109   646932176.507         283.774                                  
  21555837.140   136861389.889        -252.853                                  
  21126978.766  -341821942.447         159.820                                  
 00 04 15 00 28 40.0000000  0  6G 6G17G21G22G23G26                              
  21365320.011  1003604171.081         535.052                                  
  20374744.054   -82127024.613         -88.731                                  
  24608624.473  -538307185.078        -478.289                                  
  24655858.774   646962112.287         282.410                                  
  21550790.487   136834869.309        -255.247                                  
  21130201.565  -341805007.146         159.617                                  
 00 04 15 00 29  0.0000000  0  6G 6G17G21G22G23G26                              
  21376033.397  1003660471.910         541.346                                  
  20372977.240   -82136311.606         -83.003                                  
  24599060.746  -538357441.927        -473.340                                  
  24661530.578   646991919.694         289.777                                  
  21545707.309   136808159.518        -248.521                                  
  21133420.515  -341788092.824         166.982                                  
 00 04 15 00 29 20.0000000  0  6G 6G17G21G22G23G26                              
  21386878.760  1003717462.562         549.147                                  
  20371332.354   -82144955.139         -75.741                                  
  24589603.146  -538407139.258        -466.635                                  
  24667336.217   647022426.795         297.432                                  
  21540748.998   136782101.681        -241.814                                  
  21136792.416  -341770371.300         175.989                                  
 00 04 15 00 29 40.0000000  0  6G 6G17G21G22G23G26                              
  21397874.730  1003775246.460         541.770                                  
  20369837.791   -82152810.795         -82.763                                  
  24580273.970  -538456164.830        -475.039                                  
  24673300.458   647053768.693         290.281                                  
  21535941.066   136756836.103        -248.262                                  
  21140329.165  -341751786.111         169.139                                  
 00 04 15 00 30  0.0000000  0  6G 6G17G21G22G23G26                              
  21408725.469  1003832265.423         540.548                                  
  20368194.814   -82161445.134         -85.162                                  
  24570776.546  -538506073.135        -477.449                                  
  24679118.474   647084339.465         288.456                                  
  21530989.960   136730821.006        -250.272                                  
  21143736.426  -341733879.752         168.638                                  
 00 04 15 00 30 20.0000000  0  6G 6G17G21G22G23G26                              
  21419553.676  1003889169.962         541.901                                  
  20366515.658   -82170268.533         -84.118                                  
  24561230.554  -538556236.758        -478.244                                  
  24684910.218   647114775.976         289.812                                  
  21525998.404   136704588.558        -250.105                                  
  21147141.359  -341715987.436         170.335                                  
 00 04 15 00 30 40.0000000  0  6G 6G17G21G22G23G26                              
  21430398.536  1003946158.517         517.001                                  
  20364833.113   -82179108.677        -108.944                                  
  24551673.854  -538606456.026        -504.078                                  
  24690714.534   647145275.768         265.261                                  
  21521007.979   136678366.595        -274.406                                  
  21150580.087  -341697918.464         147.835                                  
 00 04 15 00 31  0.0000000  0  6G 6G17G21G22G23G26                              
  21440766.544  1004000641.064         530.383                                  
  20362660.351   -82190527.122         -96.906                                  
  24541619.811  -538659290.045        -491.148                                  
  24696041.202   647173267.825         278.530                                  
  21515530.781   136649581.573        -262.416                                  
  21153559.177  -341682261.369         161.438                                  
 00 04 15 00 31 20.0000000  0  6G 6G17G21G22G23G26                              
  21451387.259  1004056454.587         528.348                                  
  20360732.421   -82200657.786         -99.074                                  
  24531795.867  -538710912.061        -494.622                                  
  24701626.926   647202621.716         277.023                                  
  21510295.497   136622072.359        -263.999                                  
  21156807.747  -341665191.520         160.539                                  
 00 04 15 00 31 40.0000000  0  6G 6G17G21G22G23G26                              
  21461979.471  1004112116.919         541.093                                  
  20358766.246   -82210992.137         -86.953                                  
  24521913.411  -538762844.015        -483.605                                  
  24707186.380   647231836.131         289.987                                  
  21505023.849   136594367.602        -252.293                                  
  21160045.442  -341648177.834         173.416                                  
 00 04 15 00 32  0.0000000  0  6G 6G17G21G22G23G26                              
  21472813.811  1004169051.431         536.502                                  
  20357037.946   -82220073.627         -91.808                                  
  24512254.739  -538813599.078        -488.659                                  
  24712990.652   647262335.701         285.167                                  
  21499995.660   136567946.526        -256.537                                  
  21163550.194  -341629759.792         170.768                                  
 00 04 15 00 32 20.0000000  0  6G 6G17G21G22G23G26                              
  21483563.554  1004225539.548         544.179                                  
  20355216.630   -82229645.795         -84.811                                  
  24502486.725  -538864930.697        -482.594                                  
  24718701.358   647292346.616         292.202                                  
  21494879.539   136541060.169        -249.623                                  
  21166999.169  -341611633.630         180.061                                  
 00 04 15 00 32 40.0000000  0  7G 3G 6G17G21G22G23G26                           
  24680181.015   169149641.868        -585.900                                  
  21494467.716  1004282839.963         554.507                                  
  20353535.660   -82238476.534         -75.123                                  
  24492841.784  -538915612.601        -472.977                                  
  24724565.775   647323165.042         302.071                                  
  21489909.106   136514940.793        -239.430                                  
  21170622.344  -341592595.691         191.264                                  
 00 04 15 00 33  0.0000000  0  7G 3G 6G17G21G22G23G26                           
  24668459.776   169088048.602        -584.050                                  
  21505571.922  1004341192.304         558.633                                  
  20352044.037   -82246316.624         -71.815                                  
  24483379.784  -538965335.289        -470.660                                  
  24730635.218   647355059.846         306.076                                  
