     2              OBSERVATION DATA    M                   RINEX VERSION / TYPE
LEICA GEO OFFICE 6.0                    1-5-12 11:46        PGM / RUN BY / DATE
                                                            OBSERVER / AGENCY
SYDN                                                        MARKER NAME
SYDN                                                        MARKER NUMBER
AGE3MU07TA8         JPSE_GGD            2.3p3               REC # / TYPE / VERS
CR519994908         ASH701945C_M    NONE                    ANT # / TYPE
 -4648240.3900  2560636.5470 -3526318.5890                  APPROX POSITION XYZ
        0.0300        0.0000        0.0000                  ANTENNA: DELTA H/E/N
     1     1                                                WAVELENGTH FACT L1/2
     5    C1    P1    L1    P2    L2                        # / TYPES OF OBSERV
  2012     1     1    17     0    0.000000                  TIME OF FIRST OBS
  2012     1     1    17    59   30.000000                  TIME OF LAST OBS
    15                                                      LEAP SECONDS
    21                                                      # OF SATELLITES
          C1    P1    L1    P2    L2                        COMMENT
   G 1    35    35    35    35    35                        PRN / # OF OBS
   G 2     0     0     0     0     0                        PRN / # OF OBS
   G 3   120   120   120   120   120                        PRN / # OF OBS
   G 4     0     0     0     0     0                        PRN / # OF OBS
   G 5     0     0     0     0     0                        PRN / # OF OBS
   G 6   120   120   120   120   120                        PRN / # OF OBS
   G 7     0     0     0     0     0                        PRN / # OF OBS
   G 8     0     0     0     0     0                        PRN / # OF OBS
   G 9    83    73    73    73    73                        PRN / # OF OBS
   G10     0     0     0     0     0                        PRN / # OF OBS
   G11   120   120   120   120   120                        PRN / # OF OBS
   G12     0     0     0     0     0                        PRN / # OF OBS
   G13     0     0     0     0     0                        PRN / # OF OBS
   G14   120   120   120   120   120                        PRN / # OF OBS
   G15     0     0     0     0     0                        PRN / # OF OBS
   G16     0     0     0     0     0                        PRN / # OF OBS
   G17     0     0     0     0     0                        PRN / # OF OBS
   G18   120   120   120   120   120                        PRN / # OF OBS
   G19   120   120   120   120   120                        PRN / # OF OBS
   G20     0     0     0     0     0                        PRN / # OF OBS
   G21    38    23    23    23    23                        PRN / # OF OBS
   G22   120   120   120   120   120                        PRN / # OF OBS
   G23     0     0     0     0     0                        PRN / # OF OBS
   G24     0     0     0     0     0                        PRN / # OF OBS
   G25     0     0     0     0     0                        PRN / # OF OBS
   G26     0     0     0     0     0                        PRN / # OF OBS
   G27     0     0     0     0     0                        PRN / # OF OBS
   G28     0     0     0     0     0                        PRN / # OF OBS
   G29     0     0     0     0     0                        PRN / # OF OBS
   G30     0     0     0     0     0                        PRN / # OF OBS
   G31   117    90    90    91    91                        PRN / # OF OBS
   G32    95    54    54    55    55                        PRN / # OF OBS
   R 1     0     0     0     0     0                        PRN / # OF OBS
   R 2   120   120   120   120   120                        PRN / # OF OBS
   R 3   120   120   120   120   120                        PRN / # OF OBS
   R 4    68    68    68    68    68                        PRN / # OF OBS
   R 5     0     0     0     0     0                        PRN / # OF OBS
   R 6     0     0     0     0     0                        PRN / # OF OBS
   R 7     0     0     0     0     0                        PRN / # OF OBS
   R 8     0     0     0     0     0                        PRN / # OF OBS
   R 9     0     0     0     0     0                        PRN / # OF OBS
   R10     0     0     0     0     0                        PRN / # OF OBS
   R11     0     0     0     0     0                        PRN / # OF OBS
   R12   120   120   120   120   120                        PRN / # OF OBS
   R13   105   105   105   105   105                        PRN / # OF OBS
   R14    26    26    26    26    26                        PRN / # OF OBS
   R15     0     0     0     0     0                        PRN / # OF OBS
   R16     0     0     0     0     0                        PRN / # OF OBS
   R17   119   119   119   119   119                        PRN / # OF OBS
   R18   120   120   120   120   120                        PRN / # OF OBS
   R19   120   120   120   120   120                        PRN / # OF OBS
   R20     0     0     0     0     0                        PRN / # OF OBS
   R21     0     0     0     0     0                        PRN / # OF OBS
   R22     0     0     0     0     0                        PRN / # OF OBS
   R23     0     0     0     0     0                        PRN / # OF OBS
   R24     0     0     0     0     0                        PRN / # OF OBS
                                                            END OF HEADER
 12  1  1 17  0  0.0000000  0 15G19R18G18G 9G11G21R19R 2G 3R 3G22G14
                                R12G 6R17
  22201902.863    22201902.306   116671818.54541  22201905.919    90913125.24341
  20166256.353    20166256.260   107648877.68541  20166265.770    83726933.79541
  22699732.513    22699731.963   119287997.98241  22699736.209    92951712.72041
  24382010.599    24382011.512   128128352.11541  24382017.842    99840290.99741
  25098589.810    25098593.095   131894001.14841  25098595.674   102774547.87941
  23673522.450    23673522.350   124405264.69641  23673527.535    96939187.40641
  23371549.299    23371548.947   125022052.31141  23371555.773    97239395.78441
  21124508.723    21124507.818   112724527.92341  21124516.143    87674694.48641
  22154110.073    22154109.590   116420674.58541  22154115.580    90717404.28341
  20402851.579    20402851.188   109218103.58041  20402858.087    84947450.42141
  20546685.243    20546684.574   107973638.98641  20546686.930    84135304.95941
  20110316.604    20110316.453   105680536.66141  20110320.326    82348501.44141
  22097699.690    22097699.170   118041984.18441  22097709.699    91810463.28741
  22240040.758    22240040.418   116872237.06341  22240044.872    91069288.40141
  20869971.808    20869971.337   111679459.96241  20869979.077    86861837.59341
 12  1  1 17  0 30.0000000  0 15G19R18G18G 9G11G21R19R 2G 3R 3G22G14
                                R12G 6R17
  22197954.962    22197953.453   116651066.42841  22197956.401    90896954.76941
  20163710.674    20163709.939   107635284.33841  20163718.909    83716361.19741
  22713590.319    22713589.509   119360822.95941  22713594.055    93008459.44641
  24390539.415    24390539.155   128173164.49041  24390545.393    99875209.74341
  25079844.635    25079844.832   131795489.88641  25079847.619   102697785.88141
  23691408.879    23691407.646   124499252.88041  23691411.922    97012424.90441
  23351505.692    23351504.360   124914825.19941  23351510.744    97155996.96641
  21134802.677    21134801.836   112779458.43841  21134809.826    87717418.21441
  22162482.933    22162481.167   116464664.89841  22162486.335    90751682.42341
  20400412.791    20400412.677   109205046.73641  20400418.872    84937295.10941
  20549750.633    20549749.738   107989746.52241  20549752.107    84147856.28841
  20105123.727    20105123.171   105653245.58341  20105126.852    82327235.68941
  22091507.766    22091506.048   118008899.80641  22091515.882    91784731.00641
  22254212.600    22254212.044   116946710.35741  22254217.556    91127319.51941
  20889486.301    20889486.616   111783889.08541  20889494.550    86943060.22641
 12  1  1 17  1  0.0000000  0 16G19R18G18G 9G11G21R19R 2G 3R 3G22R13
                                G14R12G 6R17
  22194118.020    22194116.472   116630906.38141  22194119.770    90881245.64841
  20161320.123    20161319.294   107622524.29941  20161328.662    83706436.72841
  22727461.502    22727460.576   119433719.30541  22727466.475    93065261.80241
  24399151.592    24399151.698   128218426.70141  24399158.988    99910478.99141
  25061110.856    25061109.708   131697037.72841  25061114.446   102621069.96541
  23709323.811    23709325.136   124593414.08541  23709332.139    97085797.22141
  23331535.735    23331535.944   124808008.14241  23331543.059    97072917.05041
  21145111.050    21145110.182   112834466.87241  21145118.180    87760202.55241
  22170929.967    22170929.277   116509059.46241  22170934.731    90786275.57541
  20398012.420    20398012.571   109192202.24941  20398019.609    84927304.96341
  20552856.047    20552855.217   108006064.43241  20552857.356    84160571.54741
  22874755.764    22874758.899   122149945.91841  22874770.847    95005551.83641
  20100036.388    20100035.792   105626513.57241  20100039.943    82306405.57041
  22085442.779    22085441.964   117976509.26241  22085453.463    91759538.41341
  22268447.217    22268446.575   117021518.24441  22268453.741    91185611.35941
  20909089.871    20909089.251   111888787.43241  20909096.938    87024647.80141
 12  1  1 17  1 30.0000000  0 17G19R18G18G 9G11G21R19R 2G 3R 3G22R13
                                G14R12G31G 6R17
  22190392.694    22190393.136   116611339.28341  22190396.973    90865998.57241
  20159085.376    20159085.197   107610598.63341  20159094.604    83697161.21541
  22741348.271    22741347.581   119506686.83841  22741351.601    93122119.61541
  24407850.118    24407850.496   128264137.72841  24407856.601    99946097.95241
  25042387.710    25042387.017   131598646.68041  25042392.498   102544401.65541
  23727278.164    23727276.750   124687747.02341  23727283.413    97159303.33241
  23311645.992    23311644.563   124701605.70141  23311651.779    96990159.61541
  21155432.901    21155432.531   112889553.06541  21155441.536    87803047.36941
  22179453.693    22179453.422   116553856.41341  22179459.735    90821182.27241
  20395652.591    20395652.612   109179569.37341  20395659.506    84917479.41041
  20556000.945    20556000.099   108022592.88841  20556002.778    84173450.86341
  22854295.754    22854297.184   122040679.21341  22854305.693    94920566.65841
  20095056.181    20095055.758   105600340.94541  20095059.626    82286011.34441
  22079509.199    22079509.035   117944815.70041  22079519.522    91734887.90741
  25146829.727           0.000           0.00000         0.000           0.00000
  22282745.501    22282745.834   117096658.17541  22282751.753    91244161.93641
  20928778.450    20928779.108   111994150.91541  20928786.777    87106597.16641
 12  1  1 17  2  0.0000000  0 16G19R18G18G 9G11G21R19R 2G 3R 3G22G14
                                R12G31G 6R17
  22186783.560    22186782.124   116592365.30641  22186785.804    90851213.66341
  20157008.464    20157007.703   107599506.58841  20157016.676    83688534.07641
  22755245.683    22755245.486   119579725.26841  22755249.713    93179032.67041
  24416634.706    24416634.138   128310296.36841  24416638.881    99982065.73041
  25023675.810    25023676.084   131500318.70641  25023677.960   102467782.41541
  23745261.921    23745260.836   124782250.69641  23745264.987    97232942.55341
  23291832.491    23291831.473   124595621.45441  23291839.329    96907727.37541
  21165770.973    21165770.382   112944715.68641  21165778.617    87845951.62241
  22188054.482    22188054.569   116599053.12541  22188059.271    90856400.49141
  20393331.975    20393331.928   109167147.00241  20393338.228    84907817.56941
  20559186.692    20559185.396   108039331.12741  20559188.023    84186493.64141
  20090181.849    20090181.286   105574727.80841  20090185.453    82266053.08041
  22073707.416    22073706.582   117913821.10941  22073717.092    91710781.00241
  25127487.774           0.000           0.00000         0.000           0.00000
  22297107.771    22297107.262   117172126.77041  22297112.146    91302968.60941
  20948555.315    20948555.235   112099975.29441  20948563.518    87188905.00241
 12  1  1 17  2 30.0000000  0 16G19R18G18G 9G11G21R19R 2G 3R 3G22G14
                                R12G31G 6R17
  22183285.832    22183284.936   116573984.61341  22183288.298    90836891.06141
  20155086.042    20155085.884   107589250.36841  20155095.607    83680557.01541
  22769157.568    22769157.120   119652834.08441  22769162.061    93236000.55141
  24425503.231    24425502.797   128356901.33541  24425508.637   100018381.27041
  25004978.059    25004975.257   131402055.68341  25004981.261   102391213.79941
  23763278.304    23763275.957   124876923.71141  23763281.201    97306713.68141
  23272099.065    23272097.550   124490059.63241  23272106.549    96825623.74341
  21176122.226    21176121.763   112999953.85641  21176130.166    87888914.64941
  22196730.782    22196730.000   116644647.66841  22196737.248    90891928.69041
  20391050.751    20391050.560   109154934.02041  20391057.856    84898318.60041
  20562411.403    20562410.551   108056278.71841  20562412.837    84199699.55041
  20085414.585    20085414.137   105549673.97041  20085417.967    82246530.63041
  22068035.570    22068035.680   117883527.98241  22068047.264    91687219.74141
  25108106.883           0.000           0.00000         0.000           0.00000
  22311530.331    22311530.162   117247920.91541  22311536.049    91362028.96341
  20968416.016    20968415.829   112206255.90441  20968424.311    87271567.65041
 12  1  1 17  3  0.0000000  0 16G19R18G18G 9G11G21R19R 2G 3R 3G22G14
                                R12G31G 6R17
  22179901.236    22179900.554   116556198.07541  22179903.497    90823031.43441
  20153322.458    20153322.073   107579830.27841  20153330.586    83673230.27941
  22783083.834    22783083.133   119726012.96641  22783087.698    93293023.03141
  24434455.963    24434454.997   128403951.81241  24434461.946   100055043.96041
  24986291.674    24986289.150   131303859.94841  24986291.860   102314697.64041
  23781323.714    23781322.362   124971765.30541  23781330.834    97380616.13941
  23252446.052    23252444.804   124384924.06741  23252451.606    96743851.62241
  21186488.576    21186488.030   113055267.46841  21186495.550    87931936.33741
  22205482.887    22205482.089   116690637.37341  22205488.755    90927764.80041
  20388808.314    20388808.100   109142929.56741  20388814.680    84888981.80341
  20565676.009    20565675.393   108073435.83941  20565677.718    84213068.73141
  20080752.925    20080752.523   105525179.65141  20080756.799    82227444.17741
  22062497.272    22062496.403   117853938.95241  22062506.125    91664206.06041
  25088710.924           0.000           0.00000         0.000           0.00000
  22326015.253    22326014.470   117324037.66841  22326021.145    91421340.67941
  20988361.962    20988361.839   112312988.94241  20988368.758    87354582.22741
 12  1  1 17  3 30.0000000  0 16G19R18G18G 9G11G21R19R 2G 3R 3G22G14
                                R12G31G 6R17
  22176630.106    22176628.800   116539005.94641  22176632.145    90809634.98141
  20151713.936    20151713.180   107571245.43641  20151722.420    83666553.18141
  22797022.486    22797022.340   119799261.55641  22797026.339    93350099.84741
  24443493.511    24443494.222   128451446.20241  24443499.771   100092052.59541
  24967617.312    24967617.416   131205733.36541  24967622.721   102238235.35541
  23799401.773    23799403.254   125066773.92341  23799408.710    97454648.75041
  23232873.750    23232870.723   124280218.92441  23232877.950    96662414.23941
  21196868.065    21196867.117   113110655.38241  21196876.474    87975015.83141
  22214308.538    22214308.803   116737020.23141  22214314.434    90963907.25841
  20386604.551    20386604.320   109131132.71841  20386611.556    84879806.48441
  20568981.217    20568980.106   108090801.85941  20568982.267    84226600.69041
  20076198.704    20076198.228   105501244.71141  20076201.911    82208793.59441
  22057091.050    22057089.778   117825056.48241  22057100.710    91641741.93341
  25069284.982           0.000           0.00000         0.000           0.00000
  22340561.057    22340560.461   117400474.02641  22340565.740    91480901.47041
  21008390.946    21008390.989   112420169.87441  21008398.579    87437945.16441
 12  1  1 17  4  0.0000000  0 16G19R18G18G 9G11G21R19R 2G 3R 3G22G14
                                R12G31G 6R17
  22173471.482    22173470.630   116522407.92441  22173473.316    90796701.46041
  20150262.489    20150261.874   107563497.13041  20150270.830    83660526.71441
  22810974.969    22810973.813   119872579.08741  22810978.472    93407230.35441
  24452617.418    24452616.248   128499383.06141  24452621.870   100129405.95841
  24948957.313    24948955.513   131107677.71241  24948962.747   102161828.30741
  23817518.124    23817515.821   125161947.92541  23817520.840    97528810.32841
  23213381.203    23213380.250   124175947.87841  23213386.716    96581314.46341
  21207262.111    21207260.756   113166116.50441  21207269.921    88018152.25841
  22223209.977    22223209.382   116783793.86641  22223215.505    91000354.25741
  20384440.213    20384439.373   109119541.85741  20384446.378    84870791.37141
  20572325.496    20572324.377   108108376.29841  20572326.902    84240295.05441
  20071750.385    20071749.895   105477868.76341  20071753.787    82190578.59441
  22051816.657    22051815.535   117796882.17941  22051825.363    91619828.58841
  25049827.881           0.000           0.00000         0.000           0.00000
  22355167.140    22355165.852   117477226.44241  22355170.556    91540708.53841
  21028502.766    21028503.120   112527793.92341  21028511.120    87521652.73941
 12  1  1 17  4 30.0000000  0 16G19R18G18G 9G11G21R19R 2G 3R 3G22G14
                                R12G31G 6R17
  22170425.335    22170424.582   116506404.82741  22170428.789    90784231.52441
  20148967.612    20148967.373   107556585.42441  20148976.249    83655150.94341
  22824938.932    22824938.606   119945965.62741  22824943.821    93464414.64041
  24461820.225    24461821.171   128547761.45141  24461827.545   100167103.39441
  24930310.375    24930311.559   131009694.77641  24930313.987   102085477.95241
  23835658.368    23835658.816   125257286.39141  23835662.885    97603099.96941
  23193966.560    23193967.498   124072115.11841  23193976.497    96500555.58641
  21217668.888    21217667.498   113221650.34841  21217676.220    88061345.23741
  22232185.957    22232184.445   116830955.90741  22232190.060    91037103.86041
  20382312.256    20382312.420   109108156.41241  20382318.804    84861936.02841
  20575709.223    20575708.320   108126158.99441  20575710.392    84254151.70641
  20067408.492    20067407.935   105455052.09941  20067411.815    82172799.39641
  22046674.716    22046673.916   117769418.70541  22046685.234    91598468.14241
  25030345.995           0.000           0.00000         0.000           0.00000
  22369831.429    22369831.223   117554292.06041  22369836.701    91600759.64541
  21048697.428    21048696.980   112635857.00341  21048705.414    87605701.77641
 12  1  1 17  5  0.0000000  0 16G19R18G18G 9G11G21R19R 2G 3R 3G22G14
                                R12G31G 6R17
  22167493.583    22167492.523   116490996.72941  22167496.312    90772225.21841
  20147830.904    20147830.016   107550511.26941  20147838.646    83650426.57841
  22838917.239    22838916.735   120019420.97541  22838921.361    93521652.55541
  24471113.208    24471113.024   128596579.88841  24471118.106   100205143.75341
  24911680.307    24911679.934   130911787.09341  24911684.588   102009186.26841
  23853830.988    23853831.816   125352787.91141  23853836.897    97677516.67141
  23174642.089    23174640.604   123968724.60741  23174648.037    96420140.69941
  21228089.497    21228088.595   113277256.45341  21228096.415    88104594.42241
  22241232.965    22241232.393   116878504.04441  22241237.640    91074154.37241
  20380223.943    20380223.730   109096975.50341  20380230.872    84853239.77441
  20579132.499    20579131.648   108144150.05541  20579134.249    84268170.72541
  20063172.556    20063172.243   105432794.79541  20063176.319    82155456.07341
  22041666.460    22041666.409   117742668.65241  22041676.481    91577662.57041
  25010840.853           0.000           0.00000         0.000           0.00000
  22384554.741    22384554.321   117631668.05441  22384560.646    91661052.59841
  21068972.480    21068972.462   112744354.97541  21068980.801    87690089.07241
 12  1  1 17  5 30.0000000  0 16G19R18G18G 9G11G21R19R 2G 3R 3G22G14
                                R12G31G 6R17
  22164675.243    22164674.219   116476183.71341  22164676.853    90760682.61241
  20146848.096    20146847.739   107545273.01141  20146856.778    83646352.38141
  22852909.881    22852908.737   120092944.63541  22852913.234    93578943.67141
  24480483.972    24480484.694   128645836.96641  24480491.729   100243525.90741
  24893066.660    24893065.464   130813956.48341  24893067.865   101932954.62841
  23872037.068    23872033.650   125448451.16141  23872040.393    97752059.43441
  23155398.094    23155396.455   123865780.19141  23155403.240    96340072.76841
  21238523.248    21238522.736   113332933.69441  21238531.308    88147898.95541
  22250351.034    22250352.724   116926435.69541  22250359.057    91111503.69441
  20378172.823    20378172.910   109085997.91941  20378179.681    84844701.65641
  20582595.381    20582594.566   108162348.77941  20582597.377    84282351.54641
  20059044.033    20059043.345   105411096.48441  20059047.251    82138548.31741
  22036792.759    22036792.475   117716633.74141  22036803.024    91557413.22641
  24991313.692           0.000           0.00000         0.000           0.00000
  22399338.159    22399337.349   117709350.84441  22399342.548    91721584.63941
  21089327.998    21089328.071   112853283.27241  21089336.806    87774811.06841
 12  1  1 17  6  0.0000000  0 17G19R18G18G 9G11G21R19R 2G 3R 3G22R13
                                G14R12G31G 6R17
  22161969.148    22161968.329   116461966.37941  22161971.876    90749604.17841
  20146024.427    20146023.694   107540872.65641  20146032.585    83642929.86041
  22866912.421    22866911.102   120166536.13841  22866916.774    93636287.68041
  24489940.297    24489941.035   128695531.53641  24489946.647   100282248.94741
  24874466.635    24874463.277   130716205.11741  24874468.000   101856784.71541
  23890270.628    23890269.608   125544275.22641  23890275.575    97826727.39341
  23136238.516    23136236.632   123763286.08841  23136244.699    96260355.10741
  21248970.225    21248969.315   113388681.69441  21248977.634    88191258.50241
  22259546.477    22259546.586   116974748.87641  22259552.221    91149150.29841
  20376160.446    20376159.972   109075222.82941  20376166.616    84836321.04041
  20586098.416    20586097.513   108180755.04541  20586100.076    84296694.08841
  22671779.564    22671777.485   121066039.64641  22671788.128    94162504.52741
  20055021.488    20055020.865   105389957.09541  20055024.643    82122076.08941
  22032053.550    22032053.369   117691316.45041  22032064.258    91537722.01241
  24971754.474           0.000           0.00000         0.000           0.00000
  22414177.561    22414177.144   117787337.52241  22414184.512    91782353.44141
  21109764.448    21109764.247   112962637.61541  21109772.614    87859864.42141
 12  1  1 17  6 30.0000000  0 17G19R18G18G 9G11G21R19R 2G 3R 3G22R13
                                G14R12G31G 6R17
  22159377.413    22159376.309   116448344.26441  22159379.732    90738989.54841
  20145356.421    20145355.915   107537309.26641  20145365.493    83640158.33241
  22880929.609    22880928.934   120240195.18241  22880933.508    93693684.30041
  24499481.475    24499481.375   128745662.19741  24499487.745   100321311.85341
  24855879.846    24855878.419   130618534.67641  24855881.015   101780677.92441
  23908536.356    23908535.145   125640258.44841  23908538.295    97901519.43241
  23117162.114    23117161.415   123661245.87641  23117167.208    96180990.45641
  21259430.753    21259430.085   113444499.44041  21259437.327    88234672.30641
  22268813.657    22268813.156   117023440.97841  22268818.411    91187092.18441
  20374184.051    20374184.474   109064648.96941  20374191.150    84828096.93541
  20589640.466    20589639.514   108199368.24741  20589641.932    84311197.88741
  22651695.357    22651694.661   120958804.27141  22651703.410    94079099.34141
  20051104.420    20051104.343   105369376.47741  20051108.256    82106039.26541
  22027448.712    22027447.808   117666718.69441  22027458.844    91518590.43641
  24952174.419           0.000           0.00000         0.000           0.00000
  22429075.888    22429075.668   117865624.75341  22429081.758    91843356.45041
  21130277.931    21130278.287   113072413.38141  21130286.717    87945245.53241
 12  1  1 17  7  0.0000000  0 17G19R18G18G 9G11G21R19R 2G 3R 3G22R13
                                G14R12G31G 6R17
  22156898.013    22156897.344   116435317.78741  22156900.663    90728839.06541
  20144846.078    20144845.582   107534583.77141  20144854.457    83638038.47841
  22894958.351    22894958.667   120313921.26841  22894963.107    93751133.19341
  24509106.674    24509104.145   128796227.52341  24509109.333   100360713.38041
  24837308.498    24837308.679   130520947.25941  24837312.760   101704635.74741
  23926831.752    23926831.468   125736399.60741  23926832.528    97976434.58341
  23098172.072    23098171.370   123559663.72841  23098178.039    96101982.05841
  21269902.918    21269902.224   113500386.44441  21269910.605    88278139.97841
  22278150.031    22278150.277   117072509.58441  22278155.850    91225327.45041
  20372246.753    20372246.556   109054275.65741  20372253.202    84820028.80941
  20593221.650    20593220.847   108218188.59541  20593223.326    84325863.10241
  22631653.857    22631655.990   120851797.82141  22631664.642    93995872.27041
  20047294.548    20047294.160   105349354.18841  20047298.029    82090437.50441
  22022979.236    22022978.994   117642842.74141  22022989.585    91500020.27141
  24932571.740           0.000           0.00000         0.000           0.00000
  22444031.331    22444030.588   117944209.71741  22444035.414    91904591.51241
  21150870.767    21150870.461   113182606.30241  21150877.580    88030951.12241
 12  1  1 17  7 30.0000000  0 17G19R18G18G 9G11G21R19R 2G 3R 3G22R13
                                G14R12G31G 6R17
  22154531.884    22154531.778   116422887.33841  22154535.705    90719153.01241
  20144492.654    20144491.757   107532695.50141  20144500.690    83636569.81841
  22909000.828    22909001.028   120387714.40841  22909006.184    93808634.29941
  24518809.973    24518809.292   128847226.35641  24518814.796   100400452.75041
  24818753.846    24818753.820   130423445.29941  24818756.745   101628660.20341
  23945153.776    23945159.234   125832697.59741  23945161.807    98051471.94441
  23079270.166    23079267.465   123458543.43641  23079276.023    96023332.93841
  21280389.377    21280389.209   113556342.00841  21280397.676    88321660.95641
  22287559.549    22287558.911   117121952.49441  22287564.159    91263854.38041
  20370347.021    20370346.496   109044101.86941  20370353.095    84812115.87841
  20596842.276    20596841.396   108237215.76841  20596844.085    84340689.47241
  22611661.243    22611661.644   120745025.03841  22611669.943    93912826.82941
  20043591.093    20043590.407   105329890.00841  20043594.073    82075270.62941
  22018645.157    22018644.291   117619690.47541  22018654.516    91482012.94541
  24912945.064           0.000           0.00000         0.000           0.00000
  22459040.489    22459040.244   118023089.20141  22459046.162    91966055.96341
  21171539.909    21171540.070   113293212.16241  21171548.011    88116977.90541
 12  1  1 17  8  0.0000000  0 17G19R18G18G 9G11G21R19R 2G 3R 3G22R13
                                G14R12G31G 6R17
  22152280.453    22152279.957   116411052.40041  22152282.500    90709930.99341
  20144295.820    20144295.227   107531644.74941  20144303.533    83635752.55341
  22923057.038    22923056.163   120461574.17541  22923059.772    93866187.33241
  24528595.103    24528594.428   128898656.91941  24528600.837   100440528.53541
  24800216.799    24800215.797   130326030.40841  24800219.940   101552752.51141
  23963509.914    23963507.288   125929150.72941  23963510.562    98126630.23041
  23060452.521    23060451.661   123357888.74041  23060459.768    95945045.91441
  21290887.908    21290887.685   113612365.21541  21290896.104    88365234.57241
  22297038.832    22297038.146   117171767.07041  22297044.180    91302670.89441
  20368482.968    20368483.378   109034126.51641  20368489.511    84804357.28341
  20600502.366    20600501.345   108256449.05341  20600503.801    84355676.46041
  22591713.197    22591712.782   120638490.58641  22591719.491    93829966.82641
  20039992.857    20039992.600   105310984.03841  20039996.560    82060538.72641
  22014446.929    22014446.067   117597263.82441  22014457.720    91464570.02441
  24893293.114           0.000           0.00000         0.000           0.00000
  22474106.443    22474106.453   118102259.81441  22474111.433    92027747.33541
  21192285.539    21192285.557   113404226.24741  21192293.439    88203322.16241
 12  1  1 17  8 30.0000000  0 16G19R18G18G 9G11G21R19R 2G 3R 3G22G14
                                R12G31G 6R17
  22150142.337    22150140.993   116399813.38041  22150144.868    90701173.31841
  20144254.935    20144254.266   107531430.96441  20144264.625    83635586.26041
  22937123.623    22937123.572   120535500.17541  22937127.564    93923791.97441
  24538463.118    24538464.641   128950518.03641  24538469.209   100480939.76941
  24781694.616    24781694.698   130228704.87941  24781697.544   101476914.39241
  23981892.485    23981892.948   126025758.00041  23981898.484    98201908.58441
  23041723.334    23041722.987   123257703.86041  23041731.597    95867124.33641
  21301399.741    21301398.936   113668455.73141  21301407.223    88408860.52541
  22306588.347    22306587.730   117221951.00741  22306593.084    91341775.24741
  20366656.284    20366656.100   109024348.67141  20366663.416    84796752.30741
  20604201.713    20604200.621   108275888.38641  20604203.290    84370823.99741
  20036501.475    20036500.876   105292635.84141  20036504.749    82046241.45341
  22010384.647    22010384.806   117575565.07041  22010393.915    91447693.21341
  24873624.707           0.000           0.00000         0.000           0.00000
  22489227.465    22489226.380   118181718.51941  22489230.869    92089663.22441
  21213105.814    21213106.403   113515644.33541  21213114.709    88289980.65641
 12  1  1 17  9  0.0000000  0 16G19R18G18G 9G11G21R19R 2G 3R 3G22G14
                                R12G31G 6R17
  22148116.459    22148115.441   116389170.27241  22148118.762    90692879.97941
  20144372.316    20144371.960   107532054.06241  20144380.256    83636070.87341
  22951204.428    22951203.721   120609491.98441  22951208.214    93981447.88641
  24548415.718    24548415.971   129002808.18941  24548421.436   100521685.34641
  24763192.445    24763192.972   130131470.38741  24763194.878   101401147.23841
  24000306.135    24000306.768   126122518.23141  24000309.068    98277306.03141
  23023083.792    23023083.578   123157992.74741  23023090.430    95789571.22041
  21311923.142    21311922.419   113724612.75541  21311930.741    88452538.24041
  22316207.379    22316207.569   117272501.78641  22316214.178    91381165.45541
  20364866.235    20364866.136   109014767.25241  20364872.855    84789300.11041
  20607939.554    20607938.886   108295533.65541  20607941.581    84386132.00941
  20033116.098    20033115.541   105274845.07741  20033119.481    82032378.54141
  22006459.951    22006459.051   117554596.03241  22006469.309    91431383.99041
  24853927.857           0.000           0.00000         0.000           0.00000
  22504401.527    22504400.779   118261462.33641  22504406.596    92151801.23041
  21234001.743    21234001.903   113627461.91741  21234010.096    88376949.85441
 12  1  1 17  9 30.0000000  0 16G19R18G18G 9G11G21R19R 2G 3R 3G22G14
                                R12G31G 6R17
  22146205.067    22146204.204   116379122.86241  22146207.412    90685050.83241
  20144645.868    20144645.125   107533514.65041  20144654.741    83637206.87141
  22965296.590    22965296.605   120683549.51441  22965300.747    94039155.02041
  24558446.130    24558445.922   129055526.06541  24558452.246   100562764.18941
  24744708.212    24744706.393   130034329.41541  24744709.669   101325452.98241
  24018747.418    24018749.192   126219429.67641  24018753.473    98352821.40641
  23004533.905    23004533.500   123058758.95241  23004540.376    95712389.39641
  21322459.785    21322459.015   113780835.81141  21322467.550    88496267.26741
  22325895.590    22325895.920   117323416.54741  22325901.609    91420839.27641
  20363112.314    20363112.787   109005381.46541  20363119.469    84782000.05641
  20611717.761    20611716.697   108315384.26841  20611719.144    84401600.01741
  20029836.479    20029836.094   105257611.65941  20029839.834    82018949.92441
  22002672.050    22002670.932   117534358.45341  22002680.882    91415643.66441
  24834213.903           0.000           0.00000         0.000           0.00000
  22519628.555    22519628.934   118341487.90041  22519636.148    92214158.81841
  21254972.335    21254971.792   113739674.62241  21254980.248    88464226.40341
 12  1  1 17 10  0.0000000  0 17G19G32R18G18G 9G11G21R19R 2G 3R 3G22
                                G14R12G31G 6R17
  22144404.986    22144404.858   116369671.46041  22144408.243    90677686.10441
  25476454.920           0.000           0.00000         0.000           0.00000
  20145076.500    20145075.861   107535812.11841  20145084.032    83638993.77741
  22979402.749    22979402.295   120757672.48741  22979405.407    94096913.13841
  24568560.105    24568560.310   129108670.24641  24568566.129   100604175.25841
  24726238.507    24726238.618   129937283.76141  24726242.460   101249832.98341
  24037220.191    24037217.667   126316491.26841  24037224.210    98428453.83741
  22986071.329    22986071.313   122960006.61241  22986078.813    95635582.00841
  21333007.644    21333006.885   113837124.30641  21333015.563    88540047.20341
  22335654.513    22335653.882   117374693.40141  22335659.858    91460795.24741
  20361396.621    20361396.371   108996190.45041  20361403.264    84774851.51141
  20615534.557    20615533.200   108335440.41841  20615535.675    84417228.18941
  20026663.434    20026662.694   105240935.15141  20026666.507    82005955.25841
  21999019.009    21999018.445   117514854.41541  21999028.865    91400473.89441
  24814482.569           0.000           0.00000         0.000           0.00000
  22534911.142    22534911.061   118421792.22241  22534915.914    92276733.58841
  21276014.927    21276014.509   113852278.06641  21276023.039    88551806.83041
 12  1  1 17 10 30.0000000  0 17G19G32R18G18G 9G11G21R19R 2G 3R 3G22
                                G14R12G31G 6R17
  22142720.642    22142720.359   116360815.72241  22142723.527    90670785.53841
  25461596.133           0.000           0.00000         0.000           0.00000
  20145662.963    20145662.209   107538946.17441  20145672.196    83641431.36741
  22993520.304    22993519.104   120831860.19641  22993524.305    94154721.69841
  24578754.661    24578752.396   129162239.11341  24578759.795   100645917.21741
  24707790.476    24707790.786   129840335.63441  24707794.768   101174288.93941
  24055717.245    24055716.877   126413701.45541  24055720.219    98504201.91541
  22967701.795    22967700.399   122861739.44841  22967709.561    95559151.99741
  21343567.930    21343567.456   113893477.36741  21343575.336    88583877.35141
  22345479.396    22345479.146   117426329.73041  22345486.030    91501031.31441
  20359714.560    20359715.043   108987193.01941  20359721.548    84767853.52241
  20619389.582    20619388.714   108355701.50141  20619391.332    84433016.04841
  20023595.467    20023595.121   105224814.88741  20023598.947    81993394.03541
  21995505.882    21995505.413   117496085.26541  21995514.692    91385875.65141
  24794721.753           0.000           0.00000         0.000           0.00000
  22550245.405    22550245.789   118502371.73441  22550250.964    92339522.79341
  21297129.044    21297129.559   113965267.53941  21297137.430    88639687.50741
 12  1  1 17 11  0.0000000  0 18G19G32R18G18G 9G11G21R19R 2G 3R 3G22
                                R13G14R12G31G 6R17
  22141149.365    22141148.128   116352555.88941  22141151.554    90664349.31241
  25446732.160           0.000           0.00000         0.000           0.00000
  20146407.032    20146406.542   107542916.16141  20146415.532    83644519.12741
  23007650.256    23007649.391   120906112.93841  23007653.850    94212580.93741
  24589028.059    24589028.441   129216231.35841  24589032.695   100687989.09441
  24689361.247    24689360.882   129743487.21041  24689365.839   101098822.61241
  24074242.551    24074240.124   126511059.04641  24074247.372    98580064.90341
  22949422.545    22949422.482   122763961.53041  22949431.209    95483102.52941
  21354142.213    21354140.876   113949894.76341  21354148.849    88627757.53241
  22355375.304    22355374.516   117478323.42941  22355378.943    91541545.86541
  20358070.169    20358070.371   108978388.43841  20358076.700    84761005.53041
  20623284.709    20623283.327   108376167.60441  20623285.777    84448963.67141
  22472993.675    22472994.904   120004556.89841  22473006.695    93336895.37141
  20020633.918    20020633.237   105209250.71241  20020637.004    81981266.12141
  21992130.510    21992129.924   117478053.40441  21992141.603    91371850.89241
  24774943.137           0.000           0.00000         0.000           0.00000
  22565629.877    22565629.574   118583223.80241  22565636.556    92402524.37441
  21318316.452    21318315.626   114078639.01041  21318323.489    88727865.28241
 12  1  1 17 11 30.0000000  0 18G19G32R18G18G 9G11G21R19R 2G 3R 3G22
                                R13G14R12G31G 6R17
  22139691.768    22139689.927   116344891.55741  22139693.199    90658377.11141
  25431876.013           0.000           0.00000         0.000           0.00000
  20147307.556    20147306.818   107547721.84841  20147316.114    83648256.87441
  23021792.436    23021791.319   120980429.98441  23021795.172    94270490.30441
  24599382.601    24599380.227   129270645.45541  24599388.764   100730389.64941
  24670951.863    24670951.128   129646740.29741  24670955.412   101023435.42241
  24092796.017           0.000           0.00000         0.000           0.00000
  22931237.893    22931236.580   122666676.60941  22931244.488    95407436.50641
  21364725.983    21364725.468   114006375.79941  21364733.159    88671687.22141
  22365335.076    22365335.834   117530671.21441  22365341.086    91582336.32941
  20356461.962    20356461.541   108969775.82341  20356468.343    84754306.85241
  20627217.701    20627216.961   108396838.38141  20627219.190    84465070.78141
  22453380.172    22453379.460   119899821.48441  22453388.888    93255434.57741
  20017777.885    20017777.333   105194242.11841  20017781.206    81969571.12641
  21988894.841    21988893.073   117460760.17041  21988902.245    91358400.59641
  24755148.482           0.000           0.00000         0.000           0.00000
  22581066.773    22581066.571   118664344.93541  22581071.312    92465735.60741
  21339571.694    21339571.793   114192387.71641  21339579.945    88816336.47841
 12  1  1 17 12  0.0000000  0 18G19G32R18G18G 9G11G21R19R 2G 3R 3G22
                                R13G14R12G31G 6R17
  22138345.839    22138344.651   116337822.62441  22138347.931    90652868.86041
  25417019.297           0.000           0.00000         0.000           0.00000
  20148364.625    20148363.881   107553363.53641  20148372.617    83652644.84741
  23035947.958    23035946.750   121054811.25141  23035949.163    94328449.68241
  24609817.221    24609816.747   129325480.00441  24609823.851   100773117.90341
  24652559.729    24652559.936   129550097.24841  24652563.928   100948129.12341
  24111375.613           0.000           0.00000         0.000           0.00000
  22913144.071    22913143.220   122569888.49041  22913150.960    95332156.92141
  21375322.503    21375321.285   114062919.92741  21375329.383    88715665.97641
  22375364.683    22375364.589   117583371.13241  22375370.623    91623401.17741
  20354888.457    20354888.609   108961354.16641  20354895.014    84747756.68641
  20631189.963    20631188.897   108417713.37941  20631191.436    84481337.02241
  22433819.007    22433817.979   119795362.24941  22433827.219    93174188.61241
  20015027.045    20015026.542   105179789.01041  20015030.855    81958308.98041
  21985794.720    21985793.564   117444207.50941  21985804.601    91345526.31241
  24735334.496           0.000           0.00000         0.000           0.00000
  22596554.891    22596554.641   118745732.01941  22596560.656    92529154.13341
  21360899.288    21360898.960   114306509.36541  21360906.393    88905097.74141
 12  1  1 17 12 30.0000000  0 17G19G32R18G18G 9G11R19R 2G 3R 3G22R13
                                G14R12G31G 6R17
  22137113.536    22137112.727   116331348.77041  22137115.855    90647824.30541
  25402155.061           0.000           0.00000         0.000           0.00000
  20149577.530    20149577.027   107559839.85341  20149585.788    83657681.97341
  23050112.344    23050111.620   121129256.37841  23050116.473    94386458.82941
  24620331.591    24620332.391   129380733.20341  24620336.607   100816172.29941
  24634190.950    24634191.186   129453560.06741  24634194.172   100872905.27341
  22895145.014    22895144.382   122473600.77441  22895149.881    95257266.47041
  21385929.714    21385929.271   114119526.37941  21385938.059    88759693.21941
  22385460.303    22385459.953   117636420.45741  22385465.215    91664738.29741
  20353350.914    20353350.604   108953122.39441  20353357.390    84741354.21441
  20635201.396    20635200.358   108438792.42741  20635202.625    84497762.25741
  22414308.729    22414308.421   119691183.59841  22414318.485    93093160.87941
  20012382.852    20012382.340   105165890.62341  20012385.819    81947479.08241
  21982834.580    21982834.449   117428396.95441  21982843.968    91333229.23041
  24715500.980           0.000           0.00000         0.000           0.00000
  22612091.373    22612091.590   118827381.79441  22612098.151    92592777.29041
  21382293.264    21382293.651   114420999.30741  21382301.987    88994145.43641
 12  1  1 17 13  0.0000000  0 16G19R18G18G 9G11R19R 2G 3R 3G22R13G14
                                R12G31G 6R17
  22135995.197    22135993.685   116325470.31541  22135997.807    90643243.69541
  20150947.176    20150947.035   107567150.95441  20150955.571    83663368.37141
  23064291.391    23064290.391   121203765.28641  23064296.105    94444517.66841
  24630925.050    24630924.737   129436403.69541  24630930.237   100859551.88841
  24615840.782    24615840.405   129357130.85741  24615844.466   100797765.64541
  22877239.642    22877238.557   122377817.66741  22877244.648    95182768.54141
  21396548.496    21396548.394   114176194.75841  21396557.316    88803768.61241
  22395620.718    22395619.985   117689816.56841  22395625.534    91706345.63341
  20351847.467    20351847.848   108945079.90541  20351854.792    84735098.96241
  20639251.570    20639250.589   108460075.53241  20639253.016    84514346.49641
  22394853.933    22394852.710   119587290.34941  22394862.054    93012355.12741
  20009843.854    20009842.882   105152546.69241  20009846.679    81937081.22841
  21980013.933    21980013.503   117413330.05341  21980024.605    91321510.53141
  24695649.854           0.000           0.00000         0.000           0.00000
  22627680.103    22627679.617   118909291.25041  22627684.963    92656602.79641
  21403756.589    21403757.369   114535853.31041  21403765.551    89083476.30641
 12  1  1 17 13 30.0000000  0 17G19G32R18G18G 9G11R19R 2G 3R 3G22R13
                                G14R12G31G 6R17
  22134989.482    22134988.538   116320186.66641  22134992.404    90639126.56041
  25372447.578           0.000           0.00000         0.000           0.00000
  20152473.177    20152472.473   107575295.07441  20152481.805    83669702.68341
  23078481.552    23078481.733   121278337.25641  23078485.975    94502625.66641
  24641599.258    24641598.455   129492489.51741  24641604.403   100903255.12041
  24597512.145    24597511.613   129260811.55941  24597514.720   100722711.65841
  22859426.735    22859427.323   122282542.71341  22859433.946    95108665.83741
  21407179.964    21407179.659   114232924.49941  21407188.303    88847891.74241
  22405847.549    22405846.395   117743556.68941  22405851.949    91748221.02241
  20350381.745    20350381.214   108937225.62341  20350387.756    84728990.08941
  20643339.679    20643338.977   108481562.27841  20643341.673    84531089.42141
  22375450.016    22375450.257   119483686.75341  22375461.021    92931774.62341
  20007408.912    20007408.626   105139756.46541  20007412.656    81927114.82741
  21977332.866    21977332.589   117399008.38941  21977342.554    91310371.46341
  24675782.970           0.000           0.00000         0.000           0.00000
  22643314.419    22643314.706   118991457.06741  22643320.998    92720628.09741
  21425286.521    21425287.571   114651066.62641  21425295.258    89173086.62141
 12  1  1 17 14  0.0000000  0 17G19G32R18G18G 9G11R19R 2G 3R 3G22R13
                                G14R12G31G 6R17
  22134096.886    22134096.088   116315497.50841  22134099.462    90635472.67641
  25357592.009           0.000           0.00000         0.000           0.00000
  20154155.194    20154154.450   107584273.16241  20154163.376    83676685.63841
  23092685.191    23092683.612   121352972.48641  23092688.497    94560782.94741
  24652348.917    24652349.641   129548989.42441  24652355.904   100947281.00941
  24579203.280    24579201.179   129164604.65341  24579206.308   100647745.23041
  22841711.546    22841711.494   122187779.74641  22841719.130    95034961.34341
  21417824.181    21417823.330   114289715.53241  21417831.471    88892062.52041
  22416137.289    22416137.640   117797638.78541  22416144.048    91790362.87641
  20348948.665    20348948.328   108929558.75941  20348955.150    84723026.99241
  20647467.447    20647466.696   108503252.93941  20647469.271    84547991.23341
  22356105.653    22356103.745   119380378.02241  22356113.081    92851423.49341
  20005080.993    20005080.432   105127519.92941  20005084.277    81917579.88141
  21974791.958    21974791.442   117385433.74541  21974801.880    91299813.37841
  24655897.159           0.000           0.00000         0.000           0.00000
  22658998.340    22658998.828   119073876.16141  22659003.613    92784850.76641
  21446884.641    21446884.963   114766635.24141  21446891.990    89262973.28741
 12  1  1 17 14 30.0000000  0 17G19G32R18G18G 9G11R19R 2G 3R 3G22R13
                                G14R12G31G 6R17
  22133318.513    22133317.193   116311402.46441  22133320.232    90632281.73941
  25342738.935           0.000           0.00000         0.000           0.00000
  20155992.282    20155991.744   107594083.88041  20156001.031    83684316.19141
  23106898.231    23106897.955   121427670.74541  23106903.512    94618989.34241
  24663178.883    24663177.230   129605901.71441  24663185.628   100991628.23641
  24560918.748    24560916.822   129068512.29541  24560922.376   100572868.07741
  22824093.758    22824092.949   122093532.58641  22824101.125    94961658.00941
  21428477.583    21428476.705   114346566.82641  21428485.489    88936280.19241
  22426493.475    22426493.768   117852060.22841  22426499.720    91832769.15341
  20347551.220    20347550.967   108922078.49841  20347558.050    84717209.02841
  20651633.746    20651632.887   108525146.48941  20651635.540    84565051.14441
  22336815.699    22336814.052   119277368.57441  22336822.125    92771305.10841
  20002857.677    20002857.211   105115836.40241  20002860.718    81908475.84741
  21972390.650    21972390.404   117372607.51441  21972400.432    91289837.39941
  24635996.288           0.000           0.00040  24636003.946   100880301.66241
  22674730.991    22674730.537   119156545.25141  22674736.731    92849268.20841
  21468547.560    21468546.905   114882554.32541  21468554.817    89353132.53841
 12  1  1 17 15  0.0000000  0 17G19G32R18G18G 9G11R19R 2G 3R 3G22R13
                                G14R12G31G 6R17
  22132652.974    22132650.905   116307901.36641  22132654.484    90629553.60841
  25327887.985           0.000           0.00000         0.000           0.00000
  20157985.749    20157985.342   107604726.03841  20157994.678    83692593.42441
  23121126.527    23121125.080   121502431.53941  23121129.138    94677244.45241
  24674090.609    24674089.246   129663225.03341  24674094.370   101036295.71041
  24542653.528    24542655.341   128972536.26841  24542659.342   100498081.58341
  22806571.216    22806571.107   121999805.09741  22806579.496    94888758.88041
  21439142.412    21439141.717   114403477.95741  21439150.821    88980544.40041
  22436914.772    22436914.614   117906818.21941  22436919.347    91875437.68341
  20346188.595    20346188.471   108914783.84641  20346194.860    84711535.42841
  20655839.005    20655838.086   108547243.02241  20655839.912    84582269.22641
  22317581.202    22317580.261   119174663.30041  22317589.967    92691423.34841
  20000739.623    20000739.023   105104705.11441  20000742.666    81899802.12841
  21970129.076    21970128.522   117360531.02241  21970139.612    91280444.58641
  24616078.082    24616080.160   129358405.42741  24616085.017   100798743.95241
  22690509.577    22690508.530   119239461.19441  22690513.661    92913878.01441
  21490273.518    21490273.689   114998819.47441  21490281.454    89443560.95841
 12  1  1 17 15 30.0000000  0 17G19G32R18G18G 9G11R19R 2G 3R 3G22R13
                                G14R12G31G 6R17
  22132099.177    22132097.827   116304993.91141  22132100.729    90627288.05741
  25313036.482           0.000           0.00000         0.000           0.00000
  20160135.871    20160135.511   107616199.80441  20160144.521    83701517.45741
  23135363.905    23135363.651   121577254.51141  23135368.680    94735548.06841
  24685074.448    24685073.527   129720957.50041  24685079.659   101081282.03641
  24524411.113    24524413.013   128876678.62841  24524417.618   100423387.35141
  22789147.607    22789147.658   121906600.75941  22789155.926    94816266.64541
  21449819.291    21449818.041   114460448.57641  21449826.352    89024854.88341
  22447397.451    22447397.099   117961910.47041  22447403.145    91918366.69441
  20344860.414    20344860.250   108907673.86741  20344867.009    84706005.46041
  20660082.037    20660081.037   108569542.47641  20660083.546    84599645.42641
  22298405.447    22298404.447   119072266.79141  22298414.562    92611781.74041
  19998726.157    19998725.492   105094125.53741  19998729.306    81891558.31641
  21968009.882    21968009.678   117349205.44741  21968019.393    91271635.78641
  24596147.812    24596145.087   129253658.54541  24596151.039   100717123.24641
  22706333.307    22706332.940   119322620.66941  22706339.180    92978677.60041
  21512065.040    21512064.824   115115426.19441  21512072.159    89534255.03141
 12  1  1 17 16  0.0000000  0 17G19G32R18G18G 9G11R19R 2G 3R 3G22R13
                                G14R12G31G 6R17
  22131658.121    22131656.948   116302679.75841  22131660.687    90625484.81741
  25298183.181           0.000           0.00000         0.000           0.00000
  20162440.862    20162440.114   107628504.10041  20162448.869    83711087.46241
  23149613.836    23149612.647   121652139.68941  23149617.758    94793900.10841
  24696137.292    24696136.456   129779097.81241  24696143.632   101126586.18641
  24506196.380    24506194.889   128780941.78541  24506200.359   100348787.22041
  22771825.085    22771824.558   121813923.37841  22771830.089    94744184.25341
  21460506.440    21460505.673   114517478.12441  21460513.872    89069211.18041
  22457944.360    22457944.079   118017334.14941  22457950.695    91961553.95741
  20343566.636    20343566.577   108900747.79941  20343572.905    84700618.53641
  20664364.249    20664363.214   108592044.60541  20664365.747    84617179.54941
  22279287.476    22279287.671   118970183.93141  22279297.977    92532384.02841
  19996817.610    19996817.185   105084097.18441  19996820.872    81883744.02541
  21966030.580    21966030.173   117338632.64241  21966041.067    91263412.50441
  24576198.456    24576198.623   129148833.63341  24576203.561   100635441.68041
  22722203.749    22722203.127   119406020.68341  22722209.554    93043664.61941
  21533917.067    21533918.320   115232369.94141  21533926.259    89625211.23141
 12  1  1 17 16 30.0000000  0 17G19G32R18G18G 9G11R19R 2G 3R 3G22R13
                                G14R12G31G 6R17
  22131331.062    22131330.096   116300958.51941  22131332.674    90624143.59441
  25283333.337           0.000           0.00000         0.000           0.00000
  20164901.127    20164900.123   107641637.10141  20164909.007    83721302.01641
  23163876.908    23163875.765   121727086.39641  23163880.792    94852300.08841
  24707279.895    24707279.350   129837644.10541  24707285.546   101172206.67841
  24488000.798    24488001.366   128685327.71241  24488004.126   100274282.80841
  22754597.626    22754596.898   121721776.62141  22754604.785    94672514.59941
  21471204.403    21471203.566   114574566.26041  21471212.743    89113613.05541
  22468554.903    22468554.482   118073086.58441  22468559.837    92004997.40441
  20342307.031    20342306.769   108894004.58441  20342313.362    84695373.82741
  20668685.016    20668684.093   108614749.05641  20668685.887    84634871.33441
  22260230.869    22260231.363   118868419.13941  22260238.014    92453233.68641
  19995014.003    19995013.616   105074619.36041  19995017.678    81876358.72641
  21964192.910    21964192.028   117328813.65641  21964201.289    91255775.48641
  24556234.533    24556234.202   129043932.91741  24556240.604   100553701.02741
  22738118.861    22738118.813   119489657.69841  22738124.863    93108836.24841
  21555836.243    21555834.488   115349646.24341  21555842.273    89716426.10841
 12  1  1 17 17  0.0000000  0 17G19G32R18G18G 9G11R19R 2G 3R 3G22R13
                                G14R12G31G 6R17
  22131116.150    22131114.492   116299829.62841  22131118.156    90623263.93041
  25268485.237           0.000           0.00000         0.000           0.00000
  20167516.698    20167516.192   107655599.17441  20167525.667    83732161.39941
  23178150.730    23178148.974   121802094.76241  23178153.415    94910748.13541
  24718496.416    24718497.238   129896594.71641  24718502.550   101218142.23041
  24469830.447    24469829.790   128589838.52841  24469834.979   100199875.67841
  22737471.422    22737471.178   121630164.46141  22737478.940    94601260.70641
  21481914.967    21481914.284   114631712.25641  21481921.245    89158059.91841
  22479224.852    22479225.310   118129165.18041  22479230.832    92048694.99941
  20341080.775    20341081.240   108887443.53741  20341088.065    84690270.79741
  20673043.260    20673042.576   108637655.92841  20673045.254    84652720.85341
  22241234.795    22241234.716   118766977.19141  22241242.252    92374334.49141
  19993315.478    19993314.813   105065691.31441  19993318.519    81869401.82641
  21962495.612    21962494.922   117319749.74541  21962505.921    91248725.78341
  24536260.448    24536258.764   128938959.46941  24536266.628   100471903.68341
  22754080.004    22754079.816   119573528.84241  22754084.983    93174190.38241
  21577811.719    21577811.440   115467250.71141  21577818.979    89807896.25141
 12  1  1 17 17 30.0000000  0 17G19G32R18G18G 9G11R19R 2G 3R 3G22R13
                                G14R12G31G 6R17
  22131013.370    22131012.548   116299292.91941  22131016.168    90622845.71341
  25253637.382           0.000           0.00000         0.000           0.00000
  20170286.839    20170286.489   107670388.68441  20170295.176    83743664.35041
  23192434.668    23192434.218   121877164.52941  23192438.971    94969244.03141
  24729791.529    24729792.288   129955947.92841  24729797.576   101264391.47341
  24451682.311    24451682.428   128494476.08541  24451686.766   100125567.29141
  22720446.240    22720445.629   121539090.55941  22720452.961    94530425.49841
  21492632.495    21492632.012   114688916.17241  21492641.437    89202551.82341
  22489959.675    22489958.733   118185567.33941  22489965.074    92092644.72541
  20339890.134    20339889.265   108881063.89841  20339896.126    84685308.87041
  20677440.714    20677440.169   108660764.79141  20677442.871    84670727.76341
  22222298.049    22222297.853   118665862.92941  22222308.429    92295690.14941
  19991720.653    19991720.323   105057312.45141  19991723.884    81862872.85341
  21960940.514    21960939.779   117311442.23341  21960950.819    91242264.38341
  24516269.783    24516267.540   128833915.49041  24516273.920   100390051.42641
  22770083.539    22770082.994   119657630.82541  22770089.637    93239724.37741
  21599848.438    21599848.842   115585178.85141  21599856.813    89899618.08541
 12  1  1 17 18  0.0000000  0 17G19G32R18G18G 9G11R19R 2G 3R 3G22R13
                                G14R12G31G 6R17
  22131024.690    22131022.996   116299347.80941  22131026.976    90622888.47341
  25238786.816           0.000           0.00000         0.000           0.00000
  20173212.577    20173211.925   107686005.50841  20173221.079    83755810.76041
  23206732.357    23206731.282   121952295.47341  23206735.548    95027787.59941
  24741164.237    24741162.108   130015702.38641  24741167.775   101310953.36841
  24433561.174    24433560.554   128399243.44141  24433563.605   100051360.10841
  22703522.373    22703522.051   121448558.54141  22703529.087    94460011.74741
  21503364.475    21503363.669   114746177.28441  21503371.596    89247088.22241
  22500752.779    22500752.111   118242290.68241  22500758.967    92136844.69541
  20338731.357    20338731.003   108874864.90341  20338737.802    84680487.43441
  20681877.058    20681876.055   108684075.70341  20681878.818    84688892.11841
  22203426.125    22203425.230   118565081.13541  22203434.503    92217304.37441
  19990230.359    19990230.099   105049482.34141  19990233.959    81856771.48541
  21959527.572    21959527.112   117303892.70541  21959536.575    91236392.51641
  24496265.232    24496264.780   128728804.00941  24496269.032   100308146.49741
  22786130.424    22786130.190   119741960.58441  22786136.365    93305435.83841
  21621946.826    21621946.602   115703426.23741  21621954.708    89991588.22141
 12  1  1 17 18 30.0000000  0 17G19G32R18G18G 9G11R19R 2G 3R 3G22R13
                                G14R12G31G 6R17
  22131146.620    22131145.514   116299993.42841  22131149.403    90623391.55241
  25223941.328           0.000           0.00000         0.000           0.00000
  20176293.715    20176292.845   107702447.92941  20176301.754    83768599.30641
