     2.10           OBSERVATION DATA    G (GPS)             RINEX VERSION / TYPE
RTKCONV 2.4.1                           20120501 040441 UTC PGM / RUN BY / DATE 
log: H:\files\course\GMAT9200\ass2\data\SYDN0010.12o        COMMENT             
format: RINEX                                               COMMENT             
SYDN                                                        MARKER NAME         
SYDN                                                        MARKER NUMBER       
                                                            OBSERVER / AGENCY   
AGE3MU07TA8         JPSE_GGD            2.3p3               REC # / TYPE / VERS 
CR519994908         ASH701945C_M    NONE                    ANT # / TYPE        
 -4648240.3900  2560636.5470 -3526318.5890                  APPROX POSITION XYZ 
        0.0300        0.0000        0.0000                  ANTENNA: DELTA H/E/N
     1     1                                                WAVELENGTH FACT L1/2
     4    C1    L1    P2    L2                              # / TYPES OF OBSERV 
  2012     1     1    17     0    0.0000000     GPS         TIME OF FIRST OBS   
  2012     1     1    17    59   30.0000000     GPS         TIME OF LAST OBS    
                                                            END OF HEADER       
 12  1  1 17  0  0.0000000  0  9G 3G 6G 9G11G14G18G19G21G22
  22154110.073   116420674.585    22154115.580    90717404.283  
  22240040.758   116872237.063    22240044.872    91069288.401  
  24382010.599   128128352.115    24382017.842    99840290.997  
  25098589.810   131894001.148    25098595.674   102774547.879  
  20110316.604   105680536.661    20110320.326    82348501.441  
  22699732.513   119287997.982    22699736.209    92951712.720  
  22201902.863   116671818.545    22201905.919    90913125.243  
  23673522.450   124405264.696    23673527.535    96939187.406  
  20546685.243   107973638.986    20546686.930    84135304.959  
 12  1  1 17  0 30.0000000  0  9G 3G 6G 9G11G14G18G19G21G22
  22162482.933   116464664.898    22162486.335    90751682.423  
  22254212.600   116946710.357    22254217.556    91127319.519  
  24390539.415   128173164.490    24390545.393    99875209.743  
  25079844.635   131795489.886    25079847.619   102697785.881  
  20105123.727   105653245.583    20105126.852    82327235.689  
  22713590.319   119360822.959    22713594.055    93008459.446  
  22197954.962   116651066.428    22197956.401    90896954.769  
  23691408.879   124499252.880    23691411.922    97012424.904  
  20549750.633   107989746.522    20549752.107    84147856.288  
 12  1  1 17  1  0.0000000  0  9G 3G 6G 9G11G14G18G19G21G22
  22170929.967   116509059.462    22170934.731    90786275.575  
  22268447.217   117021518.244    22268453.741    91185611.359  
  24399151.592   128218426.701    24399158.988    99910478.991  
  25061110.856   131697037.728    25061114.446   102621069.965  
  20100036.388   105626513.572    20100039.943    82306405.570  
  22727461.502   119433719.305    22727466.475    93065261.802  
  22194118.020   116630906.381    22194119.770    90881245.648  
  23709323.811   124593414.085    23709332.139    97085797.221  
  20552856.047   108006064.432    20552857.356    84160571.547  
 12  1  1 17  1 30.0000000  0 10G 3G 6G 9G11G14G18G19G21G22G31
  22179453.693   116553856.413    22179459.735    90821182.272  
  22282745.501   117096658.175    22282751.753    91244161.936  
  24407850.118   128264137.728    24407856.601    99946097.952  
  25042387.710   131598646.680    25042392.498   102544401.655  
  20095056.181   105600340.945    20095059.626    82286011.344  
  22741348.271   119506686.838    22741351.601    93122119.615  
  22190392.694   116611339.283    22190396.973    90865998.572  
  23727278.164   124687747.023    23727283.413    97159303.332  
  20556000.945   108022592.888    20556002.778    84173450.863  
  25146829.727                                                  
 12  1  1 17  2  0.0000000  0 10G 3G 6G 9G11G14G18G19G21G22G31
  22188054.482   116599053.125    22188059.271    90856400.491  
  22297107.771   117172126.770    22297112.146    91302968.609  
  24416634.706   128310296.368    24416638.881    99982065.730  
  25023675.810   131500318.706    25023677.960   102467782.415  
  20090181.849   105574727.808    20090185.453    82266053.080  
  22755245.683   119579725.268    22755249.713    93179032.670  
  22186783.560   116592365.306    22186785.804    90851213.663  
  23745261.921   124782250.696    23745264.987    97232942.553  
  20559186.692   108039331.127    20559188.023    84186493.641  
  25127487.774                                                  
 12  1  1 17  2 30.0000000  0 10G 3G 6G 9G11G14G18G19G21G22G31
  22196730.782   116644647.668    22196737.248    90891928.690  
  22311530.331   117247920.915    22311536.049    91362028.963  
  24425503.231   128356901.335    24425508.637   100018381.270  
  25004978.059   131402055.683    25004981.261   102391213.799  
  20085414.585   105549673.970    20085417.967    82246530.630  
  22769157.568   119652834.084    22769162.061    93236000.551  
  22183285.832   116573984.613    22183288.298    90836891.061  
  23763278.304   124876923.711    23763281.201    97306713.681  
  20562411.403   108056278.718    20562412.837    84199699.550  
  25108106.883                                                  
 12  1  1 17  3  0.0000000  0 10G 3G 6G 9G11G14G18G19G21G22G31
  22205482.887   116690637.373    22205488.755    90927764.800  
  22326015.253   117324037.668    22326021.145    91421340.679  
  24434455.963   128403951.812    24434461.946   100055043.960  
  24986291.674   131303859.948    24986291.860   102314697.640  
  20080752.925   105525179.651    20080756.799    82227444.177  
  22783083.834   119726012.966    22783087.698    93293023.031  
  22179901.236   116556198.075    22179903.497    90823031.434  
  23781323.714   124971765.305    23781330.834    97380616.139  
  20565676.009   108073435.839    20565677.718    84213068.731  
  25088710.924                                                  
 12  1  1 17  3 30.0000000  0 10G 3G 6G 9G11G14G18G19G21G22G31
  22214308.538   116737020.231    22214314.434    90963907.258  
  22340561.057   117400474.026    22340565.740    91480901.470  
  24443493.511   128451446.202    24443499.771   100092052.595  
  24967617.312   131205733.365    24967622.721   102238235.355  
  20076198.704   105501244.711    20076201.911    82208793.594  
  22797022.486   119799261.556    22797026.339    93350099.847  
  22176630.106   116539005.946    22176632.145    90809634.981  
  23799401.773   125066773.923    23799408.710    97454648.750  
  20568981.217   108090801.859    20568982.267    84226600.690  
  25069284.982                                                  
 12  1  1 17  4  0.0000000  0 10G 3G 6G 9G11G14G18G19G21G22G31
  22223209.977   116783793.866    22223215.505    91000354.257  
  22355167.140   117477226.442    22355170.556    91540708.538  
  24452617.418   128499383.061    24452621.870   100129405.958  
  24948957.313   131107677.712    24948962.747   102161828.307  
  20071750.385   105477868.763    20071753.787    82190578.594  
  22810974.969   119872579.087    22810978.472    93407230.354  
  22173471.482   116522407.924    22173473.316    90796701.460  
  23817518.124   125161947.925    23817520.840    97528810.328  
  20572325.496   108108376.298    20572326.902    84240295.054  
  25049827.881                                                  
 12  1  1 17  4 30.0000000  0 10G 3G 6G 9G11G14G18G19G21G22G31
  22232185.957   116830955.907    22232190.060    91037103.860  
  22369831.429   117554292.060    22369836.701    91600759.645  
  24461820.225   128547761.451    24461827.545   100167103.394  
  24930310.375   131009694.776    24930313.987   102085477.952  
  20067408.492   105455052.099    20067411.815    82172799.396  
  22824938.932   119945965.627    22824943.821    93464414.640  
  22170425.335   116506404.827    22170428.789    90784231.524  
  23835658.368   125257286.391    23835662.885    97603099.969  
  20575709.223   108126158.994    20575710.392    84254151.706  
  25030345.995                                                  
 12  1  1 17  5  0.0000000  0 10G 3G 6G 9G11G14G18G19G21G22G31
  22241232.965   116878504.044    22241237.640    91074154.372  
  22384554.741   117631668.054    22384560.646    91661052.598  
  24471113.208   128596579.888    24471118.106   100205143.753  
  24911680.307   130911787.093    24911684.588   102009186.268  
  20063172.556   105432794.795    20063176.319    82155456.073  
  22838917.239   120019420.975    22838921.361    93521652.555  
  22167493.583   116490996.729    22167496.312    90772225.218  
  23853830.988   125352787.911    23853836.897    97677516.671  
  20579132.499   108144150.055    20579134.249    84268170.725  
  25010840.853                                                  
 12  1  1 17  5 30.0000000  0 10G 3G 6G 9G11G14G18G19G21G22G31
  22250351.034   116926435.695    22250359.057    91111503.694  
  22399338.159   117709350.844    22399342.548    91721584.639  
  24480483.972   128645836.966    24480491.729   100243525.907  
  24893066.660   130813956.483    24893067.865   101932954.628  
  20059044.033   105411096.484    20059047.251    82138548.317  
  22852909.881   120092944.635    22852913.234    93578943.671  
  22164675.243   116476183.713    22164676.853    90760682.612  
  23872037.068   125448451.161    23872040.393    97752059.434  
  20582595.381   108162348.779    20582597.377    84282351.546  
  24991313.692                                                  
 12  1  1 17  6  0.0000000  0 10G 3G 6G 9G11G14G18G19G21G22G31
  22259546.477   116974748.876    22259552.221    91149150.298  
  22414177.561   117787337.522    22414184.512    91782353.441  
  24489940.297   128695531.536    24489946.647   100282248.947  
  24874466.635   130716205.117    24874468.000   101856784.715  
  20055021.488   105389957.095    20055024.643    82122076.089  
  22866912.421   120166536.138    22866916.774    93636287.680  
  22161969.148   116461966.379    22161971.876    90749604.178  
  23890270.628   125544275.226    23890275.575    97826727.393  
  20586098.416   108180755.045    20586100.076    84296694.088  
  24971754.474                                                  
 12  1  1 17  6 30.0000000  0 10G 3G 6G 9G11G14G18G19G21G22G31
  22268813.657   117023440.978    22268818.411    91187092.184  
  22429075.888   117865624.753    22429081.758    91843356.450  
  24499481.475   128745662.197    24499487.745   100321311.853  
  24855879.846   130618534.676    24855881.015   101780677.924  
  20051104.420   105369376.477    20051108.256    82106039.265  
  22880929.609   120240195.182    22880933.508    93693684.300  
  22159377.413   116448344.264    22159379.732    90738989.548  
  23908536.356   125640258.448    23908538.295    97901519.432  
  20589640.466   108199368.247    20589641.932    84311197.887  
  24952174.419                                                  
 12  1  1 17  7  0.0000000  0 10G 3G 6G 9G11G14G18G19G21G22G31
  22278150.031   117072509.584    22278155.850    91225327.450  
  22444031.331   117944209.717    22444035.414    91904591.512  
  24509106.674   128796227.523    24509109.333   100360713.380  
  24837308.498   130520947.259    24837312.760   101704635.747  
  20047294.548   105349354.188    20047298.029    82090437.504  
  22894958.351   120313921.268    22894963.107    93751133.193  
  22156898.013   116435317.787    22156900.663    90728839.065  
  23926831.752   125736399.607    23926832.528    97976434.583  
  20593221.650   108218188.595    20593223.326    84325863.102  
  24932571.740                                                  
 12  1  1 17  7 30.0000000  0 10G 3G 6G 9G11G14G18G19G21G22G31
  22287559.549   117121952.494    22287564.159    91263854.380  
  22459040.489   118023089.201    22459046.162    91966055.963  
  24518809.973   128847226.356    24518814.796   100400452.750  
  24818753.846   130423445.299    24818756.745   101628660.203  
  20043591.093   105329890.008    20043594.073    82075270.629  
  22909000.828   120387714.408    22909006.184    93808634.299  
  22154531.884   116422887.338    22154535.705    90719153.012  
  23945153.776   125832697.597    23945161.807    98051471.944  
  20596842.276   108237215.768    20596844.085    84340689.472  
  24912945.064                                                  
 12  1  1 17  8  0.0000000  0 10G 3G 6G 9G11G14G18G19G21G22G31
  22297038.832   117171767.070    22297044.180    91302670.894  
  22474106.443   118102259.814    22474111.433    92027747.335  
  24528595.103   128898656.919    24528600.837   100440528.535  
  24800216.799   130326030.408    24800219.940   101552752.511  
  20039992.857   105310984.038    20039996.560    82060538.726  
  22923057.038   120461574.175    22923059.772    93866187.332  
  22152280.453   116411052.400    22152282.500    90709930.993  
  23963509.914   125929150.729    23963510.562    98126630.230  
  20600502.366   108256449.053    20600503.801    84355676.460  
  24893293.114                                                  
 12  1  1 17  8 30.0000000  0 10G 3G 6G 9G11G14G18G19G21G22G31
  22306588.347   117221951.007    22306593.084    91341775.247  
  22489227.465   118181718.519    22489230.869    92089663.224  
  24538463.118   128950518.036    24538469.209   100480939.769  
  24781694.616   130228704.879    24781697.544   101476914.392  
  20036501.475   105292635.841    20036504.749    82046241.453  
  22937123.623   120535500.175    22937127.564    93923791.974  
  22150142.337   116399813.380    22150144.868    90701173.318  
  23981892.485   126025758.000    23981898.484    98201908.584  
  20604201.713   108275888.386    20604203.290    84370823.997  
  24873624.707                                                  
 12  1  1 17  9  0.0000000  0 10G 3G 6G 9G11G14G18G19G21G22G31
  22316207.379   117272501.786    22316214.178    91381165.455  
  22504401.527   118261462.336    22504406.596    92151801.230  
  24548415.718   129002808.189    24548421.436   100521685.346  
  24763192.445   130131470.387    24763194.878   101401147.238  
  20033116.098   105274845.077    20033119.481    82032378.541  
  22951204.428   120609491.984    22951208.214    93981447.886  
  22148116.459   116389170.272    22148118.762    90692879.979  
  24000306.135   126122518.231    24000309.068    98277306.031  
  20607939.554   108295533.655    20607941.581    84386132.009  
  24853927.857                                                  
 12  1  1 17  9 30.0000000  0 10G 3G 6G 9G11G14G18G19G21G22G31
  22325895.590   117323416.547    22325901.609    91420839.276  
  22519628.555   118341487.900    22519636.148    92214158.818  
  24558446.130   129055526.065    24558452.246   100562764.189  
  24744708.212   130034329.415    24744709.669   101325452.982  
  20029836.479   105257611.659    20029839.834    82018949.924  
  22965296.590   120683549.514    22965300.747    94039155.020  
  22146205.067   116379122.862    22146207.412    90685050.832  
  24018747.418   126219429.676    24018753.473    98352821.406  
  20611717.761   108315384.268    20611719.144    84401600.017  
  24834213.903                                                  
 12  1  1 17 10  0.0000000  0 11G 3G 6G 9G11G14G18G19G21G22G31G32
  22335654.513   117374693.401    22335659.858    91460795.247  
  22534911.142   118421792.222    22534915.914    92276733.588  
  24568560.105   129108670.246    24568566.129   100604175.258  
  24726238.507   129937283.761    24726242.460   101249832.983  
  20026663.434   105240935.151    20026666.507    82005955.258  
  22979402.749   120757672.487    22979405.407    94096913.138  
  22144404.986   116369671.460    22144408.243    90677686.104  
  24037220.191   126316491.268    24037224.210    98428453.837  
  20615534.557   108335440.418    20615535.675    84417228.189  
  24814482.569                                                  
  25476454.920                                                  
 12  1  1 17 10 30.0000000  0 11G 3G 6G 9G11G14G18G19G21G22G31G32
  22345479.396   117426329.730    22345486.030    91501031.314  
  22550245.405   118502371.734    22550250.964    92339522.793  
  24578754.661   129162239.113    24578759.795   100645917.217  
  24707790.476   129840335.634    24707794.768   101174288.939  
  20023595.467   105224814.887    20023598.947    81993394.035  
  22993520.304   120831860.196    22993524.305    94154721.698  
  22142720.642   116360815.722    22142723.527    90670785.538  
  24055717.245   126413701.455    24055720.219    98504201.915  
  20619389.582   108355701.501    20619391.332    84433016.048  
  24794721.753                                                  
  25461596.133                                                  
 12  1  1 17 11  0.0000000  0 11G 3G 6G 9G11G14G18G19G21G22G31G32
  22355375.304   117478323.429    22355378.943    91541545.865  
  22565629.877   118583223.802    22565636.556    92402524.374  
  24589028.059   129216231.358    24589032.695   100687989.094  
  24689361.247   129743487.210    24689365.839   101098822.612  
  20020633.918   105209250.712    20020637.004    81981266.121  
  23007650.256   120906112.938    23007653.850    94212580.937  
  22141149.365   116352555.889    22141151.554    90664349.312  
  24074242.551   126511059.046    24074247.372    98580064.903  
  20623284.709   108376167.604    20623285.777    84448963.671  
  24774943.137                                                  
  25446732.160                                                  
 12  1  1 17 11 30.0000000  0 11G 3G 6G 9G11G14G18G19G21G22G31G32
  22365335.076   117530671.214    22365341.086    91582336.329  
  22581066.773   118664344.935    22581071.312    92465735.607  
  24599382.601   129270645.455    24599388.764   100730389.649  
  24670951.863   129646740.297    24670955.412   101023435.422  
  20017777.885   105194242.118    20017781.206    81969571.126  
  23021792.436   120980429.984    23021795.172    94270490.304  
  22139691.768   116344891.557    22139693.199    90658377.111  
  24092796.017                                                  
  20627217.701   108396838.381    20627219.190    84465070.781  
  24755148.482                                                  
  25431876.013                                                  
 12  1  1 17 12  0.0000000  0 11G 3G 6G 9G11G14G18G19G21G22G31G32
  22375364.683   117583371.132    22375370.623    91623401.177  
  22596554.891   118745732.019    22596560.656    92529154.133  
  24609817.221   129325480.004    24609823.851   100773117.903  
  24652559.729   129550097.248    24652563.928   100948129.123  
  20015027.045   105179789.010    20015030.855    81958308.980  
  23035947.958   121054811.251    23035949.163    94328449.682  
  22138345.839   116337822.624    22138347.931    90652868.860  
  24111375.613                                                  
  20631189.963   108417713.379    20631191.436    84481337.022  
  24735334.496                                                  
  25417019.297                                                  
 12  1  1 17 12 30.0000000  0 10G 3G 6G 9G11G14G18G19G22G31G32
  22385460.303   117636420.457    22385465.215    91664738.297  
  22612091.373   118827381.794    22612098.151    92592777.290  
  24620331.591   129380733.203    24620336.607   100816172.299  
  24634190.950   129453560.067    24634194.172   100872905.273  
  20012382.852   105165890.623    20012385.819    81947479.082  
  23050112.344   121129256.378    23050116.473    94386458.829  
  22137113.536   116331348.770    22137115.855    90647824.305  
  20635201.396   108438792.427    20635202.625    84497762.257  
  24715500.980                                                  
  25402155.061                                                  
 12  1  1 17 13  0.0000000  0  9G 3G 6G 9G11G14G18G19G22G31
  22395620.718   117689816.568    22395625.534    91706345.633  
  22627680.103   118909291.250    22627684.963    92656602.796  
  24630925.050   129436403.695    24630930.237   100859551.888  
  24615840.782   129357130.857    24615844.466   100797765.645  
  20009843.854   105152546.692    20009846.679    81937081.228  
  23064291.391   121203765.286    23064296.105    94444517.668  
  22135995.197   116325470.315    22135997.807    90643243.695  
  20639251.570   108460075.532    20639253.016    84514346.496  
  24695649.854                                                  
 12  1  1 17 13 30.0000000  0 10G 3G 6G 9G11G14G18G19G22G31G32
  22405847.549   117743556.689    22405851.949    91748221.022  
  22643314.419   118991457.067    22643320.998    92720628.097  
  24641599.258   129492489.517    24641604.403   100903255.120  
  24597512.145   129260811.559    24597514.720   100722711.658  
  20007408.912   105139756.465    20007412.656    81927114.827  
  23078481.552   121278337.256    23078485.975    94502625.666  
  22134989.482   116320186.666    22134992.404    90639126.560  
  20643339.679   108481562.278    20643341.673    84531089.421  
  24675782.970                                                  
  25372447.578                                                  
 12  1  1 17 14  0.0000000  0 10G 3G 6G 9G11G14G18G19G22G31G32
  22416137.289   117797638.785    22416144.048    91790362.876  
  22658998.340   119073876.161    22659003.613    92784850.766  
  24652348.917   129548989.424    24652355.904   100947281.009  
  24579203.280   129164604.653    24579206.308   100647745.230  
  20005080.993   105127519.929    20005084.277    81917579.881  
  23092685.191   121352972.486    23092688.497    94560782.947  
  22134096.886   116315497.508    22134099.462    90635472.676  
  20647467.447   108503252.939    20647469.271    84547991.233  
  24655897.159                                                  
  25357592.009                                                  
 12  1  1 17 14 30.0000000  0 10G 3G 6G 9G11G14G18G19G22G31G32
  22426493.475   117852060.228    22426499.720    91832769.153  
  22674730.991   119156545.251    22674736.731    92849268.208  
  24663178.883   129605901.714    24663185.628   100991628.236  
  24560918.748   129068512.295    24560922.376   100572868.077  
  20002857.677   105115836.402    20002860.718    81908475.847  
  23106898.231   121427670.745    23106903.512    94618989.342  
  22133318.513   116311402.464    22133320.232    90632281.739  
  20651633.746   108525146.489    20651635.540    84565051.144  
  24635996.288                    24636003.946   100880301.662  
  25342738.935                                                  
 12  1  1 17 15  0.0000000  0 10G 3G 6G 9G11G14G18G19G22G31G32
  22436914.772   117906818.219    22436919.347    91875437.683  
  22690509.577   119239461.194    22690513.661    92913878.014  
  24674090.609   129663225.033    24674094.370   101036295.710  
  24542653.528   128972536.268    24542659.342   100498081.583  
  20000739.623   105104705.114    20000742.666    81899802.128  
  23121126.527   121502431.539    23121129.138    94677244.452  
  22132652.974   116307901.366    22132654.484    90629553.608  
  20655839.005   108547243.022    20655839.912    84582269.226  
  24616078.082   129358405.427    24616085.017   100798743.952  
  25327887.985                                                  
 12  1  1 17 15 30.0000000  0 10G 3G 6G 9G11G14G18G19G22G31G32
  22447397.451   117961910.470    22447403.145    91918366.694  
  22706333.307   119322620.669    22706339.180    92978677.600  
  24685074.448   129720957.500    24685079.659   101081282.036  
  24524411.113   128876678.628    24524417.618   100423387.351  
  19998726.157   105094125.537    19998729.306    81891558.316  
  23135363.905   121577254.511    23135368.680    94735548.068  
  22132099.177   116304993.911    22132100.729    90627288.057  
  20660082.037   108569542.476    20660083.546    84599645.426  
  24596147.812   129253658.545    24596151.039   100717123.246  
  25313036.482                                                  
 12  1  1 17 16  0.0000000  0 10G 3G 6G 9G11G14G18G19G22G31G32
  22457944.360   118017334.149    22457950.695    91961553.957  
  22722203.749   119406020.683    22722209.554    93043664.619  
  24696137.292   129779097.812    24696143.632   101126586.186  
  24506196.380   128780941.785    24506200.359   100348787.220  
  19996817.610   105084097.184    19996820.872    81883744.025  
  23149613.836   121652139.689    23149617.758    94793900.108  
  22131658.121   116302679.758    22131660.687    90625484.817  
  20664364.249   108592044.605    20664365.747    84617179.549  
  24576198.456   129148833.633    24576203.561   100635441.680  
  25298183.181                                                  
 12  1  1 17 16 30.0000000  0 10G 3G 6G 9G11G14G18G19G22G31G32
  22468554.903   118073086.584    22468559.837    92004997.404  
  22738118.861   119489657.698    22738124.863    93108836.248  
  24707279.895   129837644.105    24707285.546   101172206.678  
  24488000.798   128685327.712    24488004.126   100274282.808  
  19995014.003   105074619.360    19995017.678    81876358.726  
  23163876.908   121727086.396    23163880.792    94852300.088  
  22131331.062   116300958.519    22131332.674    90624143.594  
  20668685.016   108614749.056    20668685.887    84634871.334  
  24556234.533   129043932.917    24556240.604   100553701.027  
  25283333.337                                                  
 12  1  1 17 17  0.0000000  0 10G 3G 6G 9G11G14G18G19G22G31G32
  22479224.852   118129165.180    22479230.832    92048694.999  
  22754080.004   119573528.842    22754084.983    93174190.382  
  24718496.416   129896594.716    24718502.550   101218142.230  
  24469830.447   128589838.528    24469834.979   100199875.678  
  19993315.478   105065691.314    19993318.519    81869401.826  
  23178150.730   121802094.762    23178153.415    94910748.135  
  22131116.150   116299829.628    22131118.156    90623263.930  
  20673043.260   108637655.928    20673045.254    84652720.853  
  24536260.448   128938959.469    24536266.628   100471903.683  
  25268485.237                                                  
 12  1  1 17 17 30.0000000  0 10G 3G 6G 9G11G14G18G19G22G31G32
  22489959.675   118185567.339    22489965.074    92092644.725  
  22770083.539   119657630.825    22770089.637    93239724.377  
  24729791.529   129955947.928    24729797.576   101264391.473  
  24451682.311   128494476.085    24451686.766   100125567.291  
  19991720.653   105057312.451    19991723.884    81862872.853  
  23192434.668   121877164.529    23192438.971    94969244.031  
  22131013.370   116299292.919    22131016.168    90622845.713  
  20677440.714   108660764.791    20677442.871    84670727.763  
  24516269.783   128833915.490    24516273.920   100390051.426  
  25253637.382                                                  
 12  1  1 17 18  0.0000000  0 10G 3G 6G 9G11G14G18G19G22G31G32
  22500752.779   118242290.682    22500758.967    92136844.695  
  22786130.424   119741960.584    22786136.365    93305435.838  
  24741164.237   130015702.386    24741167.775   101310953.368  
  24433561.174   128399243.441    24433563.605   100051360.108  
  19990230.359   105049482.341    19990233.959    81856771.485  
  23206732.357   121952295.473    23206735.548    95027787.599  
  22131024.690   116299347.809    22131026.976    90622888.473  
  20681877.058   108684075.703    20681878.818    84688892.118  
  24496265.232   128728804.009    24496269.032   100308146.497  
  25238786.816                                                  
 12  1  1 17 18 30.0000000  0 10G 3G 6G 9G11G14G18G19G22G31G32
  22511608.313   118299332.126    22511613.547    92181292.535  
  22802221.409   119826514.714    22802226.658    93371322.102  
  24752609.539   130075856.009    24752616.371   101357826.281  
  24415462.615   128304142.020    24415466.545    99977255.172  
  19988844.867   105042200.025    19988847.985    81851096.965  
  23221041.158   122027487.152    23221044.467    95086378.439  
  22131146.620   116299993.428    22131149.403    90623391.552  
  20686351.151   108707588.215    20686352.767    84707213.554  
  24476250.870   128623627.430    24476259.572   100226190.882  
  25223941.328                                                  
 12  1  1 17 19  0.0000000  0 10G 3G 6G 9G11G14G18G19G22G31G32
  22522521.777   118356688.969    22522527.668    92225986.148  
  22818352.643   119911290.059    22818360.264    93437380.819  
  24764132.059   130136407.400    24764139.307   101405009.124  
  24397391.050   128209174.226    24397394.486    99903254.385  
  19987563.027   105035464.887    19987566.675    81845848.822  
  23235361.870   122102739.787    23235364.231    95145016.861  
  22131381.645   116301229.559    22131384.747    90624354.764  
  20690864.368   108731302.113    20690865.525    84725691.916  
  24456226.869   128518388.748    24456235.870   100144186.910  
  25209093.047                                                  
 12  1  1 17 19 30.0000000  0 10G 3G 6G 9G11G14G18G19G22G31G32
  22533495.864   118414358.983    22533501.890    92270923.799  
  22834527.791   119996283.360    22834533.556    93503609.347  
  24775729.206   130197354.512    24775734.360   101452500.332  
  24379346.340   128114342.232    24379349.123    99829359.331  
  19986385.859   105029276.307    19986388.895    81841026.569  
  23249692.524   122178052.919    23249696.559    95203702.391  
  22131730.067   116303055.789    22131732.114    90625777.790  
  20695415.028   108755217.477    20695416.768    84744327.266  
  24436189.765   128413090.643    24436194.341   100062136.588  
  25194247.554                                                  
 12  1  1 17 20  0.0000000  0 10G 3G 6G 9G11G14G18G19G22G31G32
  22544529.779   118472339.307    22544535.710    92316103.244  
  22850742.213   120081491.614    22850747.486    93570005.304  
  24787404.296   130258695.713    24787409.132   101500298.655  
  24361326.647   128019647.920    24361327.850    99755571.619  
  19985311.526   105023633.092    19985314.821    81836629.270  
  23264035.548   122253426.186    23264039.797    95262434.772  
  22132189.439   116305471.234    22132192.008    90627659.959  
  20700004.280   108779334.086    20700005.814    84763119.431  
  24416140.634   128307735.427    24416146.125    99980041.857  
  25179404.527                                                  
 12  1  1 17 20 30.0000000  0 11G 3G 6G 9G11G14G18G19G21G22G31G32
  22555620.258   118530627.348    22555627.071    92361522.497  
  22866996.815   120166911.620    22867001.058    93636566.347  
  24799149.258   130320429.361    24799156.650   101548402.822  
  24343331.071   127925093.782    24343336.327    99681893.092  
  19984342.135   105018534.888    19984345.069    81832656.659  
  23278390.450   122328859.475    23278394.801    95321213.901  
  22132761.359   116308475.397    22132763.794    90630000.856  
  24431239.577                                                  
  20704631.556   108803651.825    20704632.803    84782068.337  
  24396084.006   128202326.503    24396085.587    99897905.253  
  25164561.650                                                  
 12  1  1 17 21  0.0000000  0 11G 3G 6G 9G11G14G18G19G21G22G31G32
  22566771.887   118589220.156    22566777.709    92407179.243  
  22883289.754   120252539.805    22883297.138    93703289.601  
  24810973.427   130382553.856    24810978.648   101596811.519  
  24325364.561   127830681.845    24325370.345    99608325.455  
  19983474.934   105013980.621    19983478.033    81829107.894  
  23292757.014   122404352.293    23292760.327    95380039.494  
  22133445.257   116312067.820    22133446.651    90632800.135  
  24450274.542                                                  
  20709297.340   108828170.413    20709298.670    84801173.737  
  24376019.138   128096866.070    24376023.400    99815728.428  
  25149713.548                                                  
 12  1  1 17 21 30.0000000  0 11G 3G 6G 9G11G14G18G19G21G22G31G32
  22577979.870   118648115.055    22577984.693    92453071.378  
  22899625.566   120338373.206    22899630.951    93770172.723  
  24822868.927   130445067.389    24822874.225   101645523.352  
  24307429.585   127736414.453    24307431.977    99534870.362  
  19982712.005   105009969.655    19982714.744    81825982.480  
  23307133.149   122479904.885    23307136.592    95438911.639  
  22134240.196   116316247.651    22134242.174    90636057.145  
  24469329.056                                                  
  20714001.446   108852889.714    20714002.998    84820435.534  
  24355933.271   127991357.026    24355940.540    99733513.696  
  25134874.007                                                  
 12  1  1 17 22  0.0000000  0 11G 3G 6G 9G11G14G18G19G21G22G31G32
  22589242.384   118707309.459    22589248.992    92499196.873  
  22915996.395   120424408.522    22916002.900    93837213.183  
  24834837.692   130507967.848    24834844.480   101694536.652  
  24289517.669   127642293.711    24289521.816    99461529.564  
  19982051.164   105006501.019    19982054.823    81823279.658  
  23321521.187   122555517.037    23321524.904    95497830.109  
  22135146.654   116321014.151    22135149.597    90639771.293  
  24488411.194                                                  
  20718743.349   108877809.496    20718745.034    84839853.554  
  24335851.590   127885802.070    24335852.239    99651263.272  
  25120033.474                                                  
 12  1  1 17 22 30.0000000  0 11G 3G 6G 9G11G14G18G19G21G22G31G32
  22600564.567   118766800.854    22600570.040    92545553.756  
  22932406.679   120510642.782    22932411.985    93904408.691  
  24846880.645   130571253.583    24846887.599   101743850.202  
  24271634.573   127548321.900    24271639.860    99388304.844  
  19981494.513   105003573.955    19981497.469    81820998.850  
  23335921.093   122631188.589    23335926.138    95556794.933  
  22136165.651   116326366.951    22136167.976    90643942.288  
  24507507.300                                                  
  20723523.532   108902929.822    20723525.024    84859427.845  
  24315753.225   127780204.181    24315761.284    99568979.348  
  25105200.841                                                  
 12  1  1 17 23  0.0000000  0 10G 3G 6G 9G11G14G18G19G21G22G31
  22611943.172   118826586.095    22611946.828    92592139.636  
  22948853.215   120597072.542    22948858.414    93971756.512  
  24858997.405   130634922.927    24859002.527   101793462.628  
  24253779.806   127454501.091    24253785.823    99315197.767  
  19981040.151   105001187.701    19981043.760    81819139.447  
  23350333.170   122706919.170    23350334.436    95615805.743  
  22137295.799   116332304.979    22137298.103    90648569.315  
  24526628.406                                                  
  20728341.648   108928250.353    20728343.260    84879158.133  
  24295649.083   127674565.654    24295659.644    99486663.812  
 12  1  1 17 23 30.0000000  0 10G 3G 6G 9G11G14G18G19G21G22G31
  22623373.344   118886662.932    22623378.609    92638952.735  
  22965336.875   120683694.679    22965342.946    94039254.281  
  24871186.093   130698973.848    24871192.205   101843372.460  
  24235956.822   127360833.419    24235961.126    99242210.011  
  19980689.113   104999340.966    19980692.302    81817700.447  
  23364754.531   122782708.441    23364758.379    95674862.282  
  22138536.649   116338827.523    22138538.930    90653651.813  
  24545775.276                                                  
  20733198.700   108953771.138    20733200.028    84899044.463  
  24275544.654   127568889.467    24275546.230    99404318.911  
 12  1  1 17 24  0.0000000  0 10G 3G 6G 9G11G14G18G19G22G31G32
  22634860.676   118947028.452    22634865.018    92685990.755  
  22981856.036   120770505.989    22981863.098    94106899.430  
  24883447.486   130763404.786    24883452.692   101893578.279  
  24218162.537   127267321.084    24218165.420    99169343.282  
  19980439.710   104998033.242    19980443.379    81816681.453  
  23379187.623   122858556.231    23379192.323    95733964.396  
  22139889.841   116345933.728    22139891.791    90659189.104  
  20738092.828   108979492.042    20738094.407    84919086.736  
  24255426.911   127463178.520    24255431.386    99321946.890  
  25060672.789                                                  
 12  1  1 17 24 30.0000000  0 10G 3G 6G 9G11G14G18G19G22G31G32
  22646400.874   119007679.683    22646408.450    92733251.400  
  22998411.367   120857503.129    22998417.018    94174689.348  
  24895777.797   130828213.403    24895783.742   101944078.471  
  24200396.835   127173966.264    24200401.454    99096599.296  
  19980293.781   104997263.347    19980296.910    81816081.551  
  23393632.237   122934462.484    23393636.040    95793112.085  
  22141352.265   116353622.710    22141354.588    90665180.524  
  20743025.557   109005412.685    20743027.003    84939284.652  
  24235300.446   127357435.272    24235309.397    99239549.694  
  25045829.415                                                  
 12  1  1 17 25  0.0000000  0 10G 3G 6G 9G11G14G18G19G22G31G32
  22657997.342   119068613.933    22658002.535    92780732.610  
  23015002.347   120944682.969    23015008.200    94242621.668  
  24908181.578   130893398.088    24908189.826   101994871.657  
  24182662.528   127080771.418    24182666.927    99023979.996  
  19980248.938   104997030.365    19980252.438    81815900.023  
  23408089.346   123010427.102    23408092.653    95852305.287  
  22142926.027   116361893.905    22142928.542    90671625.618  
  20747996.706   109031533.120    20747997.395    84959638.254  
  24215174.411   127251662.616    24215181.092    99157129.601  
  25030989.791                                                  
 12  1  1 17 25 30.0000000  0 10G 3G 6G 9G11G14G18G19G22G31G32
  22669646.574   119129828.397    22669650.661    92828432.162  
  23031626.378   121032042.437    23031631.992    94310693.974  
  24920660.408   130958956.886    24920665.292   102045956.378  
  24164959.309   126987738.736    24164963.021    98951487.022  
  19980306.476   104997333.211    19980309.982    81816136.016  
  23422554.303   123086449.799    23422558.635    95911543.726  
  22144610.518   116370746.146    22144613.052    90678523.478  
  20753004.768   109057853.244    20753005.740    84980147.451  
  24195042.372   127145863.474    24195046.875    99074688.853  
  25016150.713                                                  
 12  1  1 17 26  0.0000000  0 10G 3G 6G 9G11G14G18G19G22G31G32
  22681347.218   119191320.517    22681353.389    92876348.078  
  23048283.976   121119578.177    23048289.305    94378903.617  
  24933205.193   131024888.505    24933210.223   102097331.697  
  24147286.868   126894870.078    24147290.565    98879121.849  
  19980466.674   104998170.931    19980469.377    81816788.801  
  23437032.839   123162530.501    23437037.277    95970827.378  
  22146405.476   116380178.718    22146407.402    90685873.544  
  20758050.776   109084372.797    20758052.179    85000812.055  
  24174902.041   127040040.443    24174910.975    98992229.520  
  25001313.852                                                  
 12  1  1 17 26 30.0000000  0 10G 3G 6G 9G11G14G18G19G22G31G32
  22693100.717   119253087.499    22693107.342    92924478.182  
  23064975.042   121207286.992    23064977.931    94447248.130  
  24945821.333   131091190.853    24945828.892   102148995.859  
  24129646.000   126802167.822    24129649.207    98806886.386  
  19980726.808   104999542.335    19980730.585    81817857.442  
  23451522.823   123238668.951    23451523.588    96030155.988  
  22148310.729   116390190.481    22148313.735    90693674.915  
  20763135.308   109111091.638    20763136.978    85021631.936  
  24154761.499   126934196.425    24154769.476    98909753.788  
  24986476.424                                                  
 12  1  1 17 27  0.0000000  0 10G 3G 6G 9G11G14G18G19G22G31G32
  22704907.914   119315126.800    22704912.391    92972820.478  
  23081696.393   121295166.080    23081702.033    94515725.312  
  24958507.425   131157862.155    24958514.311   102200947.492  
  24112036.751   126709634.694    24112040.897    98734782.651  
  19981089.859   105001446.853    19981092.886    81819341.495  
  23466020.104   123314865.257    23466024.662    96089529.668  
  22150326.726   116400781.221    22150328.169    90701927.455  
  20768257.777   109138009.942    20768259.020    85042607.253  
  24134618.990   126828334.511    24134623.467    98827264.144  
  24971643.220                                                  
 12  1  1 17 27 30.0000000  0 10G 3G 6G 9G11G14G18G19G22G31G32
  22716764.362   119377435.115    22716770.104    93021372.389  
  23098450.879   121383211.628    23098457.424    94584332.197  
  24971266.729   131224899.953    24971271.112   102253184.714  
  24094460.877   126617272.499    24094464.488    98662812.120  
  19981553.196   105003883.027    19981556.388    81821239.831  
  23480531.503   123391118.439    23480536.777    96148947.669  
  22152451.566   116411948.941    22152453.685    90710629.577  
  20773417.826   109165127.293    20773419.384    85063737.668  
  24114471.157   126722456.903    24114474.855    98744762.278  
  24956805.428                                                  
 12  1  1 17 28  0.0000000  0 10G 3G 6G 9G11G14G18G19G22G31G32
  22728671.413   119440009.841    22728677.813    93070131.903  
  23115235.929   121471420.819    23115242.364    94653066.624  
  24984090.879   131292302.504    24984098.361   102305706.118  
  24076918.914   126525083.432    24076923.926    98590976.506  
  19982117.899   105006849.895    19982120.925    81823551.687  
  23495053.732   123467429.121    23495056.456    96208410.485  
  22154685.183   116423692.888    22154688.701    90719780.715  
  20778616.551   109192443.860    20778617.870    85085023.311  
  24094319.561   126616566.843    24094323.446    98662250.703  
  24941968.662                                                  
 12  1  1 17 28 30.0000000  0 10G 3G 6G 9G11G14G18G19G22G31G32
  22740628.953   119502848.081    22740635.785    93119096.718  
  23132053.867   121559790.205    23132058.881    94721925.854  
  24996987.230   131360067.859    24996993.402   102358510.262  
  24059409.541   126433069.602    24059414.553    98519277.443  
  19982783.226   105010346.377    19982786.156    81826276.233  
  23509584.060   123543797.076    23509589.633    96267917.964  
  22157029.766   116436012.146    22157033.091    90729380.149  
  20783852.685   109219959.178    20783853.348    85106463.827  
  24074167.744   126510666.912    24074172.474    98579731.402  
  24927134.575                                                  
 12  1  1 17 29  0.0000000  0 10G 3G 6G 9G11G14G18G19G22G31G32
  22752636.863   119565947.136    22752642.034    93168264.775  
  23148899.571   121648316.657    23148905.230    94790907.455  
  25009950.510   131428194.066    25009957.845   102411595.609  
  24041933.738   126341233.254    24041937.454    98447716.697  
  19983548.891   105014371.066    19983552.203    81829412.369  
  23524128.727   123620221.941    23524132.678    96327469.712  
  22159485.060   116448905.635    22159486.446    90739427.050  
  20789126.263   109247673.397    20789127.461    85128059.325  
  24054015.807   126404759.892    24054017.887    98497206.545  
  24912296.557                                                  
 12  1  1 17 29 30.0000000  0 10G 3G 6G 9G11G14G18G19G22G31G32
  22764693.727   119629304.258    22764699.263    93217633.931  
  23165773.877   121736997.229    23165781.429    94860009.164  
  25022984.516   131496679.341    25022990.589   102464960.762  
  24024492.114   126249577.093    24024495.009    98376296.310  
  19984415.156   105018923.048    19984418.571    81832959.381  
  23538681.594   123696703.611    23538685.770    96387065.772  
  22162047.172   116462372.153    22162048.680    90749920.471  
  20794437.978   109275586.537    20794439.333    85149809.824  
  24033860.205   126298848.744    24033864.862    98414678.530  
  24897463.742                                                  
 12  1  1 17 30  0.0000000  0  9G 3G 6G 9G11G14G18G19G22G31
  22776799.149   119692917.099    22776804.261    93267202.336  
  23182679.444   121825828.692    23182683.660    94929228.456  
  25036082.418   131565521.857    25036093.125   102518604.260  
  24007082.599   126158103.272    24007087.829    98305018.041  
  19985381.718   105024001.545    19985384.555    81836916.668  
  23553247.716   123773242.139    23553250.992    96446706.144  
  22164717.713   116476411.112    22164720.308    90760859.971  
  20799787.527   109303698.423    20799788.607    85171715.204  
  24013703.225   126192936.653    24013710.990    98332149.758  
 12  1  1 17 30 30.0000000  0  9G 3G 6G 9G11G14G18G19G22G31
  22788952.159   119756782.344    22788957.202    93316967.462  
  23199611.801   121914807.723    23199616.835    94998562.762  
  25049249.950   131634719.464    25049257.067   102572524.450  
  23989712.081   126066813.932    23989716.766    98233883.527  
  19986447.837   105029605.024    19986451.190    81841283.032  
  23567823.164   123849837.025    23567827.359    96506390.416  
  22167498.494   116491020.799    22167500.606    90772244.175  
  20805174.018   109332009.003    20805175.975    85193775.403  
  23993549.572   126087026.157    23993556.455    98249622.171  
 12  1  1 17 31  0.0000000  0 10G 3G 6G 9G11G14G18G19G22G31G32
  22801152.712   119820897.095    22801158.133    93366926.961  
  23216570.320   122003931.038    23216575.880    95068009.464  
  25062491.284   131704270.343    25062493.615   102626719.840  
  23972378.994   125975711.167    23972380.431    98162894.354  
  19987613.526   105035732.491    19987617.080    81846057.690  
  23582409.778   123926488.381    23582413.756    96566118.697  
  22170385.986   116506200.347    22170388.985    90784072.431  
  20810599.375   109360517.959    20810601.056    85215990.173  
  23973398.663   125981120.130    23973402.069    98167098.074  
  24852964.054                                                  
 12  1  1 17 31 30.0000000  0 10G 3G 6G 9G11G14G18G19G22G31G32
  22813400.276   119885258.448    22813405.911    93417078.620  
  23233556.774   122093195.627    23233562.758    95137566.253  
  25075786.717   131774172.363    25075794.989   102681188.895  
  23955077.410   125884797.087    23955079.175    98092052.245  
  19988879.562   105042382.246    19988882.466    81851239.337  
  23597005.534   124003195.990    23597010.723    96625890.806  
  22173382.984   116521948.366    22173385.461    90796343.639  
  20816062.420   109389225.470    20816063.893    85238359.662  
  23953245.360   125875221.157    23953250.700    98084579.508  
  24838132.680                                                  
 12  1  1 17 32  0.0000000  0 10G 3G 6G 9G11G14G18G19G22G31G32
  22825693.084   119949864.068    22825699.081    93467420.644  
  23250570.237   122182598.111    23250575.752    95207230.465  
  25089157.319   131844423.675    25089166.638   102735930.141  
  23937811.588   125794074.252    23937816.514    98021359.149  
  19990243.643   105049553.371    19990247.218    81856827.241  
  23611614.212   124079959.697    23611617.437    96685706.665  
  22176488.627   116538263.767    22176490.383    90809056.952  
  20821562.996   109418131.404    20821564.680    85260883.768  
  23933094.662   125769332.334    23933100.253    98002068.856  
  24823299.254                                                  
 12  1  1 17 32 30.0000000  0 10G 3G 6G 9G11G14G18G19G22G31G32
  22838032.760   120014710.295    22838040.034    93517950.121  
  23267607.868   122272135.421    23267614.914    95276999.739  
  25102591.755   131915021.942    25102598.690   102790941.847  
  23920586.527   125703544.820    23920588.353    97950816.751  
  19991707.703   105057244.798    19991710.599    81862820.575  
  23626232.791   124156779.296    23626237.569    96745566.028  
  22179701.060   116555145.130    22179702.994    90822211.298  
  20827101.165   109447235.403    20827102.933    85283562.214  
  23912948.050   125663456.536    23912953.196    97919568.330  
  24808471.680                    24808475.840   101586561.221  
 12  1  1 17 33  0.0000000  0 10G 3G 6G 9G11G14G18G19G22G31G32
  22850419.543   120079795.277    22850425.567    93568665.678  
  23284672.628   122361804.732    23284677.467    95346871.903  
  25116093.952   131985965.486    25116095.167   102846222.589  
  23903396.152   125613211.326    23903399.309    97880427.048  
  19993269.780   105065455.267    19993273.113    81869218.363  
  23640862.180   124233655.058    23640866.382    96805469.145  
  22183020.082   116572591.439    22183022.585    90835805.860  
  20832677.352   109476537.892    20832678.793    85306395.327  
  23892803.088   125557596.878    23892810.082    97837080.403  
  24793635.882   130291456.901    24793645.070   101525829.577  
 12  1  1 17 33 30.0000000  0 10G 3G 6G 9G11G14G18G19G22G31G32
  22862849.531   120145115.565    22862854.962    93619564.587  
  23301759.415   122451602.091    23301765.691    95416843.854  
  25129658.314   132057251.849    25129661.575   102901770.303  
  23886244.334   125523075.481    23886247.477    97810191.359  
  19994930.432   105074183.058    19994933.914    81876019.249  
  23655500.573   124310586.342    23655505.416    96865415.555  
  22186448.011   116590601.235    22186449.609    90849839.477  
  20838291.066   109506038.635    20838292.779    85329382.911  
  23872662.527   125451755.839    23872668.792    97754606.975  
  24778805.814   130213520.512    24778812.072   101465099.942  
 12  1  1 17 34  0.0000000  0 10G 3G 6G 9G11G14G18G19G22G31G32
  22875323.874   120210668.525    22875329.322    93670644.784  
  23318870.570   122541525.106    23318877.223    95486913.713  
  25143286.955   132128879.470    25143290.454   102957584.073  
  23869127.495   125433139.920    23869131.941    97740111.714  
  19996689.908   105083427.266    19996692.990    81883222.541  
  23670152.132   124387573.440    23670154.789    96925405.448  
  22189981.594   116609173.274    22189984.059    90864311.212  
  20843942.656   109535737.483    20843944.071    85352524.869  
  23852527.457   125345936.544    23852530.737    97672150.531  
  24763978.894   130135586.305    24763984.648   101404372.124  
 12  1  1 17 34 30.0000000  0 10G 3G 6G 9G11G14G18G19G22G31G32
  22887841.980   120276451.117    22887848.358    93721903.944  
  23336005.985   122631570.240    23336012.487    95557078.696  
  25156982.091   132200845.949    25156993.002   103013661.908  
  23852053.178   125343406.654    23852057.260    97670189.727  
  19998547.177   105093186.322    19998550.156    81890827.014  
  23684812.224   124464615.866    23684816.187    96985438.452  
  22193622.978   116628306.286    22193624.527    90879220.052  
  20849632.135   109565634.444    20849633.465    85375821.201  
  23832392.710   125240141.740    23832397.700    97589713.130  
  24749147.240   130057653.981    24749151.278   101343645.666  
 12  1  1 17 35  0.0000000  0 10G 3G 6G 9G11G14G18G19G22G31G32
  22900403.233   120342460.616    22900409.359    93773339.879  
  23353166.060   122721734.432    23353169.965    95627336.441  
  25170740.005   132273149.410    25170746.944   103070002.149  
  23835017.036   125253878.645    23835020.491    97600427.698  
  20000501.719   105103459.341    20000504.863    81898831.975  
  23699482.738   124541713.700    23699488.282    97045514.582  
  22197371.127   116647998.566    22197372.304    90894564.708  
  20855358.934   109595729.332    20855360.275    85399271.760  
  23812264.362   125134374.437    23812269.850    97507297.153  
  24734313.995   129979723.671    24734322.622   101282920.813  
 12  1  1 17 35 30.0000000  0 10G 3G 6G 9G11G14G18G19G22G31G32
  22913006.809   120408694.141    22913012.254    93824950.336  
  23370343.373   122812014.407    23370349.960    95697684.416  
  25184565.194   132345787.877    25184569.962   103126603.524  
  23818020.525   125164557.352    23818022.768    97530826.678  
  20002554.543   105114244.508    20002557.426    81907236.010  
  23714164.877   124618866.841    23714169.540    97105633.877  
  22201223.831   116668248.914    22201226.181    90910344.185  
  20861123.472   109626022.190    20861125.102    85422876.572  
  23792144.251   125028637.595    23792150.650    97424904.903  
  24719489.098   129901795.442    24719495.364   101222197.554  
 12  1  1 17 36  0.0000000  0 10G 3G 6G 9G11G14G18G19G22G31G32
  22925654.610   120475148.611    22925657.186    93876732.966  
  23387545.106   122902407.049    23387549.705    95768120.186  
  25198451.738   132418759.175    25198451.144   103183464.337  
  23801061.816   125075445.210    23801065.153    97461388.680  
  20004703.431   105125540.510    20004706.827    81916038.104  
  23728858.271   124696074.987    23728861.893    97165796.041  
  22205181.403   116689055.806    22205185.195    90926557.362  
  20866925.001   109656513.042    20866927.141    85446635.675  
  23772034.072   124922933.965    23772036.333    97342538.541  
  24704656.628   129823869.138    24704662.341   101161475.833  
 12  1  1 17 36 30.0000000  0 11G 3G 6G 9G11G14G18G19G21G22G31G32
  22938339.738   120541821.416    22938344.937    93928685.778  
  23404766.706   122992909.321    23404773.553    95838641.401  
  25212401.406                                                  
  23784145.345   124986544.827    23784148.741    97392115.679  
  20006950.395   105137345.946    20006953.251    81925237.157  
  23743558.694   124773338.350    23743564.326    97226001.226  
  22209248.523   116710418.062    22209250.123    90943203.271  
  25050132.951                                                  
  20872765.334   109687201.846    20872766.908    85470549.024  
  23751922.177   124817266.534    23751923.982    97260200.340  
  24689832.967   129745944.791    24689834.854   101100755.677  
 12  1  1 17 37  0.0000000  0 10G 3G 6G11G14G18G19G21G22G31G32
  22951066.979   120608709.681    22951074.176    93980806.444  
  23422010.506   123083517.917    23422014.553    95909245.419  
  23767269.689   124897858.310    23767271.852    97323009.321  
  20009293.203   105149659.547    20009296.684    81934832.183  
  23758273.065   124850656.557    23758276.804    97286249.136  
  22213419.174   116732334.052    22213420.937    90960280.658  
  25069748.433                                                  
  20878643.511   109718088.452    20878644.350    85494616.509  
  23731824.150   124711638.033    23731824.443    97177892.483  
  24675000.321   129668022.508    24675007.985   101040037.036  
 12  1  1 17 37 30.0000000  0 10G 3G 6G11G14G18G19G21G22G31G32
  22963837.347   120675810.325    22963843.672    94033092.650  
  23439271.721   123174229.613    23439277.572    95979929.778  
  23750431.364   124809387.874    23750436.591    97254071.352  
  20011733.065   105162479.633    20011736.337    81944821.872  
  23772996.980   124928029.467    23773002.044    97346539.685  
  22217693.975   116754802.288    22217696.288    90977788.364  
  25089381.605                                                  
  20884558.792   109749172.793    20884559.746    85518838.072  
  23711735.582   124606051.458    23711732.203    97095617.343  
  24660170.538   129590101.922    24660181.909   100979319.720  
 12  1  1 17 38  0.0000000  0 11G 3G 6G 9G11G14G18G19G21G22G31G32
  22976645.882   120743120.545    22976651.524    94085542.142  
  23456553.131   123265041.537    23456557.135    96050692.245  
  25254622.191                                                  
  23733639.406   124721135.802    23733642.505    97185303.550  
  20014268.723   105175805.016    20014271.851    81955205.297  
  23787730.021   125005457.011    23787735.271    97406872.756  
  22222074.519   116777821.155    22222076.816    90995725.138  
  25109026.798                                                  
  20890511.625   109780454.934    20890512.539    85543213.759  
  23691647.300   124500509.869    23691651.734    97013377.181  
  24645344.095   129512183.288    24645351.337   100918603.931  
 12  1  1 17 38 30.0000000  0 10G 3G 6G 9G11G14G18G19G22G31G32
  22989493.576   120810637.431    22989499.057    94138152.685  
  23473852.065   123355950.547    23473858.125    96121530.352  
  25268819.165                                                  
  23716888.456   124633104.444    23716890.215    97116707.704  
  20016900.902   105189634.425    20016903.524    81965981.468  
  23802474.989   125082939.560    23802480.686    97467248.732  
  22226559.372   116801389.326    22226561.149    91014089.951  
  20896500.987   109811934.999    20896502.707    85567743.688  
  23671572.652   124395016.336    23671577.489    96931174.564  
  24630521.033   129434266.871    24630525.277   100857889.935  
 12  1  1 17 39  0.0000000  0 10G 3G 6G 9G11G14G18G19G22G31G32
  23002383.000   120878358.504    23002386.961    94190922.276  
  23491168.382   123446953.693    23491175.732    96192441.818  
  25283071.308                                                  
  23700177.210   124545296.355    23700181.044    97048285.855  
  20019626.910   105203966.495    20019630.684    81977149.322  
  23817230.407   125160476.807    23817232.495    97527667.349  
  22231148.589   116825505.199    22231150.831    91032881.522  
  20902529.625   109843612.765    20902530.986    85592427.667  
  23651506.544   124289573.762    23651508.424    96849011.628  
  24615690.406   129356352.679    24615699.105   100797177.630  
 12  1  1 17 39 30.0000000  0 11G 3G 6G 9G11G14G18G19G21G22G31G32
  23015305.349   120946280.108    23015312.319    94243848.175  
  23508503.368   123538047.178    23508509.161    96263423.723  
  25297397.235                                                  
  23683510.650   124457713.311    23683514.010    96980039.342  
  20022450.381   105218799.168    20022453.346    81988707.255  
  23831993.823   125238068.148    23831997.858    97588128.081  
  22235841.800   116850166.982    22235843.255    91052098.504  
  25168037.211                                                  
  20908595.218   109875488.077    20908596.787    85617265.574  
  23631451.234   124184184.751    23631455.286    96766890.402  
  24600867.645   129278440.188    24600872.412   100736466.665  
 12  1  1 17 40  0.0000000  0 11G 3G 6G 9G11G14G18G19G21G22G31G32
  23028268.417   121014399.914    23028274.190    94296928.502  
  23525855.075   123629228.251    23525860.191    96334473.854  
  25311770.739                                                  
  23666888.659   124370357.841    23666891.830    96911970.200  
  20025367.700   105234131.309    20025370.783    82000654.388  
  23846771.117   125315713.608    23846773.974    97648630.992  
  22240637.829   116875373.227    22240640.607    91071739.734  
  25187734.787                                                  
  20914698.388   109907561.221    20914700.051    85642257.632  
  23611408.830   124078852.420    23611411.536    96684813.288  
  24586041.625   129200529.735    24586047.509   100675757.202  
 12  1  1 17 40 30.0000000  0 10G 3G 6G 9G11G14G18G19G22G31G32
  23041269.586   121082714.841    23041273.469    94350160.878  
  23543222.367   123720493.911    23543228.161    96405589.870  
  25326207.373                                                  
  23650306.421   124283231.916    23650312.035    96844079.893  
  20028380.058   105249961.160    20028383.178    82012989.353  
